OBJECTID,OSHPD_ID,FACILITY_NAME,LICENSE_NUM,FACILITY_LEVEL_DESC,DBA_ADDRESS1,DBA_CITY,DBA_ZIP_CODE,COUNTY_CODE,COUNTY_NAME,ER_SERVICE_LEVEL_DESC,TOTAL_NUMBER_BEDS,FACILITY_STATUS_DESC,FACILITY_STATUS_DATE,LICENSE_TYPE_DESC,LICENSE_CATEGORY_DESC,LATITUDE,LONGITUDE,x,y
1,106130699,EL CENTRO REGIONAL MEDICAL CENTER,90000004,Parent Facility,1415 ROSS AVE,EL CENTRO,92243,13,Imperial,Emergency - Basic,161,Open,1/21/1967 12:00:00 AM,Hospital,General Acute Care Hospital,32.78138,-115.49824,6792728.02596672,1864913.90663956
2,106130760,PIONEERS MEMORIAL HEALTHCARE DISTRICT,90000087,Parent Facility,207 W LEGION RD,BRAWLEY,92227,13,Imperial,Emergency - Basic,107,Open,11/6/1950 12:00:00 AM,Hospital,General Acute Care Hospital,32.96003,-115.55183,6775821.83471355,1929799.14169823
3,106301155,COLLEGE HOSPITAL COSTA MESA,60000100,Parent Facility,301 VICTORIA ST,COSTA MESA,92627,30,Orange,None,122,Open,9/5/1968 12:00:00 AM,Hospital,General Acute Care Hospital,33.65249,-117.91303,6055600.99169356,2185078.30994464
4,106301205,HOAG MEMORIAL HOSPITAL PRESBYTERIAN,60000122,Parent Facility,1 Hoag Dr,Newport Beach,92663,30,Orange,Emergency - Basic,434,Open,9/15/1952 12:00:00 AM,Hospital,General Acute Care Hospital,33.62526,-117.92949,6050432.95511363,2175251.29514989
5,106301262,PROVIDENCE MISSION HOSPITAL,60000146,Parent Facility,27700 MEDICAL CENTER RD,MISSION VIEJO,92691,30,Orange,Emergency - Basic,345,Open,8/10/1971 12:00:00 AM,Hospital,General Acute Care Hospital,33.56279,-117.66768,6129813.57325497,2151338.09756956
6,106301304,NEWPORT BAY HOSPITAL,60000160,Parent Facility,1501 E 16TH ST,NEWPORT BEACH,92663,30,Orange,Not Applicable,36,Open,1/7/1958 12:00:00 AM,Hospital,Acute Psychiatric Hospital,33.62218,-117.90654,6057400.54550913,2174018.91539681
7,106301317,MEMORIALCARE SADDLEBACK MEDICAL CENTER,60000166,Parent Facility,24451 Health Center Dr,Laguna Hills,92653,30,Orange,Emergency - Basic,248,Open,1/27/1974 12:00:00 AM,Hospital,General Acute Care Hospital,33.60802,-117.70825,6117686.02434738,2167965.22671682
8,106301325,SADDLEBACK MEMORIAL MEDICAL CENTER - SAN CLEMENTE,60000166,Consolidated Facility,654 Camino de los Mares,San Clemente,92673,30,Orange,None,73,Open,6/12/2020 12:00:00 AM,Hospital,General Acute Care Hospital,33.45745,-117.64954,6134824.59833789,2112936.41354631
9,106301337,PROVIDENCE MISSION HOSPITAL - LAGUNA BEACH,60000146,Consolidated Facility,31872 Coast Hwy,Laguna Beach,92651,30,Orange,Emergency - Basic,159,Open,7/1/2009 12:00:00 AM,Hospital,General Acute Care Hospital,33.4997391,-117.7422502,6106771.00943205,2128714.74517857
10,106301357,FOOTHILL REGIONAL MEDICAL CENTER,60000178,Parent Facility,14662 Newport Ave,Tustin,92780,30,Orange,Emergency - Basic,177,Open,2/23/1998 12:00:00 AM,Hospital,General Acute Care Hospital,33.73119,-117.82903,6081594.33931306,2213315.76035939
11,106304045,HOAG HOSPITAL IRVINE,60000122,Consolidated Facility,16200 Sand Canyon Ave,Irvine,92618,30,Orange,Emergency - Basic,96,Open,8/26/2010 12:00:00 AM,Hospital,General Acute Care Hospital,33.66168,-117.77371,6098042.55411997,2187774.18447414
12,106304113,CHILDREN'S HOSPITAL AT MISSION,60000348,Parent Facility,27700 MEDICAL CENTER RD,MISSION VIEJO,92691,30,Orange,Emergency - Basic,54,Open,1/1/1993 12:00:00 AM,Hospital,General Acute Care Hospital,33.56279,-117.66768,6129813.57325497,2151338.09756956
13,106304306,KAISER FOUNDATION HOSPITAL - ORANGE COUNTY - IRVINE,60000091,Consolidated Facility,6640 Alton Pkwy,Irvine,92618,30,Orange,Emergency - Basic,264,Open,5/7/2008 12:00:00 AM,Hospital,General Acute Care Hospital,33.65921,-117.77401,6097938.14094298,2186876.81389356
14,106304460,HOAG ORTHOPEDIC INSTITUTE,550001431,Parent Facility,16250 Sand Canyon Ave,Irvine,92618,30,Orange,None,70,Open,11/10/2010 12:00:00 AM,Hospital,General Acute Care Hospital,33.6617789,-117.7735916,6098079.10358755,2187809.64273655
15,106304583,"LAGUNA TREATMENT HOSPITAL, LLC",550003560,Parent Facility,24552 Pacific Park Dr,Aliso Viejo,92677,30,Orange,Not Applicable,93,Open,6/15/2016 12:00:00 AM,Hospital,Chemical Dep. Recovery Hospital,33.57191,-117.70173,6119488.05650447,2154799.07293107
16,106304585,ENCOMPASS HEALTH REHABILITATION HOSPITAL OF TUSTIN,60000303,Parent Facility,15120 Kensington Park Dr,Tustin,92782,30,Orange,None,65,Open,4/22/2022 12:00:00 AM,Hospital,General Acute Care Hospital,33.71365,-117.81685,6085201.25959264,2206877.93235581
17,106304589,"ALISO RIDGE BEHAVIORAL HEALTH, LLC",550007782,Parent Facility,200 Freedom Ln,Aliso Viejo,92656,30,Orange,Not Applicable,119,Open,1/14/2022 12:00:00 AM,Hospital,Acute Psychiatric Hospital,33.56252,-117.72868,6111231.45064239,2151497.94994015
18,106330120,THE BETTY FORD CENTER,250000049,Parent Facility,39000 Bob Hope Dr,Rancho Mirage,92270,33,Riverside,Not Applicable,100,Open,7/5/1983 12:00:00 AM,Hospital,Chemical Dep. Recovery Hospital,33.76418,-116.40808,6513625.23574822,2221721.84361281
19,106331145,CORONA REGIONAL MEDICAL CENTER-MAGNOLIA,250000126,Consolidated Facility,730 Magnolia Ave,Corona,92879,33,Riverside,None,78,Open,1/15/1965 12:00:00 AM,Hospital,General Acute Care Hospital,33.8586945,-117.5546427,6165592.65327147,2258557.50878648
20,106331168,EISENHOWER MEDICAL CENTER,250000142,Parent Facility,39000 Bob Hope Dr,Rancho Mirage,92270,33,Riverside,Emergency - Basic,437,Open,12/27/1971 12:00:00 AM,Hospital,General Acute Care Hospital,33.76418,-116.40808,6513625.23574822,2221721.84361281
21,106331194,HEMET GLOBAL MEDICAL CENTER,250000145,Parent Facility,1117 E DEVONSHIRE AVE,HEMET,92543,33,Riverside,Emergency - Basic,327,Open,1/1/1946 12:00:00 AM,Hospital,General Acute Care Hospital,33.75113,-116.95958,6345977.91061047,2217670.51247664
22,106331216,JOHN F. KENNEDY MEMORIAL HOSPITAL,250000155,Parent Facility,47111 Monroe St,Indio,92201,33,Riverside,Emergency - Basic,145,Open,2/18/1966 12:00:00 AM,Hospital,General Acute Care Hospital,33.70677,-116.23391,6566563.69614406,2200794.62464055
23,106332172,KINDRED HOSPITAL - RIVERSIDE,250000234,Parent Facility,2224 MEDICAL CENTER DR,PERRIS,92571,33,Riverside,None,40,Open,5/1/2007 12:00:00 AM,Hospital,General Acute Care Hospital,33.81241,-117.22161,6266537.9585983,2240611.42919314
24,106334001,SOUTHWEST HEALTHCARE SYSTEM-WILDOMAR,250000262,Consolidated Facility,36485 INLAND VALLEY DR,WILDOMAR,92595,33,Riverside,Emergency - Basic,120,Open,1/14/1987 12:00:00 AM,Hospital,General Acute Care Hospital,33.59124,-117.23699,6261104.49604005,2160177.09596765
25,106334018,MENIFEE GLOBAL MEDICAL CENTER,250000338,Parent Facility,28400 MCCALL BLVD,SUN CITY,92585,33,Riverside,Emergency - Basic,84,Open,6/5/1989 12:00:00 AM,Hospital,General Acute Care Hospital,33.72146,-117.15691,6285902.5832548,2207339.14140715
26,106334068,SOUTHWEST HEALTHCARE SYSTEM-MURRIETA,250000262,Parent Facility,25500 MEDICAL CENTER DR,MURRIETA,92562,33,Riverside,Emergency - Basic,120,Open,2/19/1992 12:00:00 AM,Hospital,General Acute Care Hospital,33.55788,-117.18488,6276864.15546556,2147892.32296506
27,106334457,TELECARE RIVERSIDE COUNTY PSYCHIATRIC HEALTH FACILITY,,Parent Facility,47915 Oasis St,Indio,92201,33,Riverside,Not Applicable,16,Open,8/4/2014 12:00:00 AM,Hospital,Psychiatric Health Facility,33.70085,-116.22091,6570517.97432472,2198641.24574523
28,106334564,TEMECULA VALLEY HOSPITAL,550002434,Parent Facility,31700 Temecula Pkwy,Temecula,92592,33,Riverside,Emergency - Basic,140,Open,10/9/2013 12:00:00 AM,Hospital,General Acute Care Hospital,33.4795943,-117.1048018,6301025.43719539,2119197.73238848
29,106334589,LOMA LINDA UNIVERSITY MEDICAL CENTER-MURRIETA,550001535,Parent Facility,28100 Baxter Rd,Murrieta,92563,33,Riverside,Emergency - Basic,111,Open,4/12/2011 12:00:00 AM,Hospital,General Acute Care Hospital,33.6122263,-117.1624483,6283870.73069122,2167606.56568873
30,106334678,ENCOMPASS HEALTH REHABILITATION HOSPITAL OF MURRIETA,550005282,Parent Facility,35470 Whitewood Rd,Murrieta,92563,33,Riverside,None,50,Open,2/12/2020 12:00:00 AM,Hospital,General Acute Care Hospital,33.60628,-117.1628,6283744.71421097,2165443.83280948
31,106370033,"CASA PALMERA CARE CENTER, LLC",550005096,Parent Facility,14750 El Camino Real,Del Mar,92014,37,San Diego,Not Applicable,93,Open,12/6/2019 12:00:00 AM,Hospital,Chemical Dep. Recovery Hospital,32.98392,-117.22588,6262419.4648668,1939174.88935089
32,106370652,ALVARADO HOSPITAL MEDICAL CENTER,90000013,Parent Facility,6655 Alvarado Rd,San Diego,92120,37,San Diego,Emergency - Basic,222,Open,8/11/1972 12:00:00 AM,Hospital,General Acute Care Hospital,32.7766415,-117.0573188,6313523.19205546,1863317.51777197
33,106370658,SCRIPPS MERCY HOSPITAL - CHULA VISTA,90000074,Consolidated Facility,435 H ST,CHULA VISTA,91910,37,San Diego,Emergency - Basic,173,Open,10/1/2004 12:00:00 AM,Hospital,General Acute Care Hospital,32.63289,-117.08282,6305267.23809497,1811077.28465423
34,106370673,RADY CHILDREN'S HOSPITAL - SAN DIEGO,80000028,Parent Facility,3020 CHILDRENS WAY,SAN DIEGO,92123,37,San Diego,Emergency - Basic,511,Open,8/18/1954 12:00:00 AM,Hospital,General Acute Care Hospital,32.79678,-117.15077,6284862.90062289,1870879.84418273
35,106370689,SHARP CORONADO HOSPITAL AND HEALTHCARE CENTER,90000036,Parent Facility,250 PROSPECT PL,CORONADO,92118,37,San Diego,Emergency - Basic,59,Open,1/1/1946 12:00:00 AM,Hospital,General Acute Care Hospital,32.69427,-117.16808,6279215.24984471,1833629.77268565
36,106370694,SHARP MEMORIAL HOSPITAL,80000039,Parent Facility,7901 FROST ST,SAN DIEGO,92123,37,San Diego,Emergency - Basic,656,Open,11/1/1974 12:00:00 AM,Hospital,General Acute Care Hospital,32.80016,-117.15531,6283478.46769622,1872121.68192214
37,106370695,SHARP MARY BIRCH HOSPITAL FOR WOMEN AND NEWBORNS,80000039,Consolidated Facility,3003 HEALTH CENTER DR,SAN DIEGO,92123,37,San Diego,None,206,Open,11/1/2009 12:00:00 AM,Hospital,General Acute Care Hospital,32.8007,-117.1549,6283606.15805763,1872317.05784373
38,106370714,GROSSMONT HOSPITAL,80000006,Parent Facility,5555 GROSSMONT CENTER DR,LA MESA,91942,37,San Diego,Emergency - Basic,524,Open,8/10/1955 12:00:00 AM,Hospital,General Acute Care Hospital,32.77963,-117.00924,6328308.91051547,1864293.8265149
39,106370721,KINDRED HOSPITAL - SAN DIEGO,90000059,Parent Facility,1940 EL CAJON BLVD,SAN DIEGO,92104,37,San Diego,None,70,Open,1/1/1946 12:00:00 AM,Hospital,General Acute Care Hospital,32.75542,-117.14449,6286663.60273014,1855815.0970813
40,106370730,KAISER FOUNDATION HOSPITAL - SAN DIEGO - ZION,80000062,Parent Facility,4647 ZION AVE,SAN DIEGO,92120,37,San Diego,Emergency - Basic,368,Open,11/18/1975 12:00:00 AM,Hospital,General Acute Care Hospital,32.79287,-117.09447,6302152.02483723,1869312.45656948
41,106370744,SCRIPPS MERCY HOSPITAL,90000074,Parent Facility,4077 5TH AVE,SAN DIEGO,92103,37,San Diego,Emergency - Basic,482,Open,1/1/1946 12:00:00 AM,Hospital,General Acute Care Hospital,32.75128,-117.1609,6281605.39434263,1854352.50912723
42,106370745,SHARP MESA VISTA HOSPITAL,550000273,Parent Facility,7850 VISTA HILL AVE,SAN DIEGO,92123,37,San Diego,Not Applicable,159,Open,9/8/2006 12:00:00 AM,Hospital,Acute Psychiatric Hospital,32.79499,-117.15521,6283492.86497714,1870240.40025164
43,106370749,ALVARADO PARKWAY INSTITUTE B.H.S.,80000079,Parent Facility,7050 PARKWAY DR,LA MESA,91942,37,San Diego,Not Applicable,66,Open,9/30/1959 12:00:00 AM,Hospital,Acute Psychiatric Hospital,32.77446,-117.04449,6317460.27899756,1862493.52073231
44,106370759,PARADISE VALLEY HOSPITAL,90000086,Parent Facility,2400 E 4th St,National City,91950,37,San Diego,Emergency - Basic,227,Open,3/29/1966 12:00:00 AM,Hospital,General Acute Care Hospital,32.6863293,-117.0830382,6305355.40622573,1830520.95770906
45,106370771,SCRIPPS MEMORIAL HOSPITAL - LA JOLLA,80000050,Parent Facility,9888 GENESEE AVE,LA JOLLA,92037,37,San Diego,Emergency - Basic,426,Open,5/3/1964 12:00:00 AM,Hospital,General Acute Care Hospital,32.88506,-117.22279,6263031.38719939,1903197.6542189
46,106370775,PARADISE VALLEY HSP D/P APH BAYVIEW BEH HLTH,90000086,Distinct Part Facility,330 MOSS ST,CHULA VISTA,91911,37,San Diego,None,64,Open,11/30/1977 12:00:00 AM,Hospital,General Acute Care Hospital,32.61669,-117.0717,6308644.2661178,1805155.96513206
47,106370780,TRI-CITY MEDICAL CENTER,80000099,Parent Facility,4002 VISTA WAY,OCEANSIDE,92056,37,San Diego,Emergency - Basic,386,Open,7/11/1961 12:00:00 AM,Hospital,General Acute Care Hospital,33.18394,-117.29027,6243401.1840058,2012139.61284372
48,106370782,UC SAN DIEGO HEALTH HILLCREST - HILLCREST MEDICAL CENTER,90000101,Parent Facility,200 W ARBOR DR,SAN DIEGO,92103,37,San Diego,Emergency - Comprehensive,381,Open,7/1/1953 12:00:00 AM,Hospital,General Acute Care Hospital,32.75387,-117.16498,6280359.26100814,1855305.81890039
49,106370875,SHARP CHULA VISTA MEDICAL CENTER,90000008,Parent Facility,751 MEDICAL CENTER CT,CHULA VISTA,91911,37,San Diego,Emergency - Basic,449,Open,5/27/1975 12:00:00 AM,Hospital,General Acute Care Hospital,32.61909,-117.02488,6323067.76122089,1805918.79431506
50,106370977,PALOMAR MEDICAL CENTER POWAY,80000127,Parent Facility,15615 POMERADO RD,POWAY,92064,37,San Diego,Emergency - Basic,236,Open,6/22/1977 12:00:00 AM,Hospital,General Acute Care Hospital,32.99563,-117.05784,6313980.32237481,1942994.66091082
51,106371256,SCRIPPS GREEN HOSPITAL,80000139,Parent Facility,10666 N TORREY PINES RD,LA JOLLA,92037,37,San Diego,None,173,Open,2/6/1977 12:00:00 AM,Hospital,General Acute Care Hospital,32.89654,-117.2419,6257204.67805231,1907429.69857632
52,106371394,SCRIPPS MEMORIAL HOSPITAL - ENCINITAS,80000148,Parent Facility,354 SANTA FE DR,ENCINITAS,92024,37,San Diego,Emergency - Basic,187,Open,6/16/1964 12:00:00 AM,Hospital,General Acute Care Hospital,33.0363,-117.28495,6244495.56764381,1958407.01066348
53,106374024,AURORA SAN DIEGO,80000310,Parent Facility,11878 AVE OF INDUSTRY,SAN DIEGO,92128,37,San Diego,Not Applicable,101,Open,5/19/1988 12:00:00 AM,Hospital,Acute Psychiatric Hospital,32.99067,-117.07551,6308548.3883568,1941232.46496014
54,106374049,SHARP MCDONALD CENTER,80000319,Parent Facility,7989 LINDA VISTA RD,SAN DIEGO,92111,37,San Diego,Not Applicable,16,Open,7/20/1989 12:00:00 AM,Hospital,Chemical Dep. Recovery Hospital,32.80702,-117.15436,6283792.03367014,1874615.04045248
55,106374055,SAN DIEGO COUNTY PSYCHIATRIC HOSPITAL,90000092,Parent Facility,3853 Rosecrans St,San Diego,92110,37,San Diego,Not Applicable,109,Open,7/25/1989 12:00:00 AM,Hospital,Acute Psychiatric Hospital,32.75376,-117.20257,6268802.14796755,1855369.29876031
56,106374063,ALVARADO HOSPITAL MEDICAL CENTER,90000013,Consolidated Facility,6645 ALVARADO RD,SAN DIEGO,92120,37,San Diego,None,80,Open,6/7/1990 12:00:00 AM,Hospital,General Acute Care Hospital,32.7771,-117.05696,6313634.7659793,1863483.48266314
57,106374094,SELECT SPECIALTY HOSPITAL - SAN DIEGO,90000404,Parent Facility,555 WASHINGTON ST,SAN DIEGO,92103,37,San Diego,None,110,Open,4/14/1992 12:00:00 AM,Hospital,General Acute Care Hospital,32.74986,-117.16001,6281874.51716398,1853833.4773569
58,106374141,UCSD HEALTH LA JOLLA - JACOBS MEDICAL CENTER & SULPIZIO CARDIOVASCULAR CENTER,90000101,Consolidated Facility,9300 CAMPUS POINT DR,LA JOLLA,92037,37,San Diego,Emergency - Comprehensive,418,Open,7/20/1993 12:00:00 AM,Hospital,General Acute Care Hospital,32.87799,-117.22331,6262847.74320972,1900626.86014789
59,106374382,PALOMAR MEDICAL CENTER,80000083,Parent Facility,2185 W Citracado Pkwy,Escondido,92029,37,San Diego,Emergency - Basic,286,Open,8/15/2012 12:00:00 AM,Hospital,General Acute Care Hospital,33.12158,-117.11961,6295423.79419921,1988972.32026765
60,106374465,KAISER FOUNDATION HOSPITAL - SAN DIEGO - CLAIREMONT MESA,80000062,Consolidated Facility,9455 Clairemont Mesa Blvd,San Diego,92123,37,San Diego,Emergency - Basic,253,Open,3/30/2017 12:00:00 AM,Hospital,General Acute Care Hospital,32.83154,-117.12581,6292639.17936164,1883461.35149997
61,106374572,PALOMAR REHABILITATION INSTITUTE,550006213,Parent Facility,2181 W Citracado Pkwy,Escondido,92029,37,San Diego,None,52,Open,4/29/2021 12:00:00 AM,Hospital,General Acute Care Hospital,33.12136,-117.11987,6295343.52467471,1988892.9395209
62,206014177,THE COVINGTON CARE CENTER,60000937,Parent Facility,3 Pursuit,Aliso Viejo,92656,30,Orange,Not Applicable,24,Open,7/13/2004 12:00:00 AM,Long Term Care Facility,Skilled Nursing Facility,33.55427,-117.72665,6111807.27855897,2148487.49533114
63,206130728,IMPERIAL MANOR,90000061,Parent Facility,101 E 2ND ST,IMPERIAL,92251,13,Imperial,Not Applicable,31,Open,6/10/1973 12:00:00 AM,Long Term Care Facility,Skilled Nursing Facility,32.840898,-115.569643,6770640.92545597,1886418.13397223
64,206130764,"IMPERIAL HEIGHTS HEALTHCARE & WELLNESS CENTRE, LLC",90000089,Parent Facility,320 CATTLE CALL DR,BRAWLEY,92227,13,Imperial,Not Applicable,99,Open,5/23/1967 12:00:00 AM,Long Term Care Facility,Skilled Nursing Facility,32.97072,-115.54626,6777504.05739897,1933700.0715604
65,206130785,EL CENTRO POST-ACUTE CARE,90000103,Parent Facility,1700 S IMPERIAL AVE,EL CENTRO,92243,13,Imperial,Not Applicable,123,Open,7/29/1963 12:00:00 AM,Long Term Care Facility,Skilled Nursing Facility,32.781885,-115.569862,6770713.72353873,1864946.48662689
66,206300052,ARIAS HOME,550005686,Parent Facility,823 Towne St,Costa Mesa,92627,30,Orange,Not Applicable,6,Open,8/19/2020 12:00:00 AM,Long Term Care Facility,Congregate Living Health Facility,33.64104,-117.93305,6049442.06831589,2181010.11663748
67,206300206,FAIRVIEW DEVELOPMENTAL CENTER D/P ICFDD,170000771,Parent Facility,2501 Harbor Blvd,Costa Mesa,92626,30,Orange,Not Applicable,10,Open,3/1/2020 12:00:00 AM,Long Term Care Facility,ICF/Dev. Disabled,33.66332,-117.91934,6053744.08005305,2189049.38271114
68,206300210,REGENTS POINT - WINDCREST,60000055,Parent Facility,19191 HARVARD AVE,IRVINE,92612,30,Orange,Not Applicable,59,Open,5/1/1985 12:00:00 AM,Long Term Care Facility,Skilled Nursing Facility,33.651493,-117.832164,6080201.52287297,2184332.60474314
69,206300323,ORCHARDS SKILLED NURSING,550006120,Parent Facility,92694,Ladera Ranch,92694,30,Orange,Not Applicable,49,Open,9/24/2021 12:00:00 AM,Long Term Care Facility,Skilled Nursing Facility,33.54638,-117.64086,6137903.39828263,2145257.36465231
70,206301115,LAGUNA HILLS HEALTH AND REHABILITATION CENTER,60000084,Parent Facility,24452 HEALTH CENTER DR,LAGUNA HILLS,92653,30,Orange,Not Applicable,208,Open,9/25/1969 12:00:00 AM,Long Term Care Facility,Skilled Nursing Facility,33.60784,-117.70801,6117758.17512172,2167898.71241415
71,206301118,CAPISTRANO BEACH CARE CENTER,60000085,Parent Facility,35410 DEL REY,CAPISTRANO BEACH,92624,30,Orange,Not Applicable,93,Open,12/11/1966 12:00:00 AM,Long Term Care Facility,Skilled Nursing Facility,33.449501,-117.650584,6134467.35594213,2110048.55022757
72,206301119,VICTORIA HEALTHCARE AND REHABILITATION CENTER,60000086,Parent Facility,340 Victoria St,Costa Mesa,92627,30,Orange,Not Applicable,79,Open,6/28/1966 12:00:00 AM,Long Term Care Facility,Skilled Nursing Facility,33.65264,-117.91374,6055385.82414488,2185136.33279447
73,206301187,NEWPORT NURSING AND REHABILITATION CENTER,60000116,Parent Facility,1555 SUPERIOR AVE,NEWPORT BEACH,92663,30,Orange,Not Applicable,59,Open,10/21/1961 12:00:00 AM,Long Term Care Facility,Skilled Nursing Facility,33.63109,-117.92875,6050692.34731139,2177368.83586231
74,206301202,ADVANCED REHAB CENTER OF TUSTIN,60000121,Parent Facility,2210 E 1ST ST,SANTA ANA,92705,30,Orange,Not Applicable,99,Open,12/5/1958 12:00:00 AM,Long Term Care Facility,Skilled Nursing Facility,33.745463,-117.835981,6079560.17474622,2218541.10391131
75,206301259,MESA VERDE POST ACUTE CARE CENTER,60000144,Parent Facility,661 CENTER ST,COSTA MESA,92627,30,Orange,Not Applicable,80,Open,12/8/1964 12:00:00 AM,Long Term Care Facility,Skilled Nursing Facility,33.64154,-117.92592,6051614.78673947,2181157.0825509
76,206301289,PELICAN RIDGE POST ACUTE,60000154,Parent Facility,466 FLAGSHIP RD,NEWPORT BEACH,92663,30,Orange,Not Applicable,167,Open,8/22/1966 12:00:00 AM,Long Term Care Facility,Skilled Nursing Facility,33.6278,-117.92907,6050575.67562872,2176173.38090414
77,206301290,CRYSTAL COVE CARE CENTER,60000155,Parent Facility,1445 SUPERIOR AVENUE,NEWPORT BEACH,92663,30,Orange,Not Applicable,96,Open,5/27/1968 12:00:00 AM,Long Term Care Facility,Skilled Nursing Facility,33.62682109,-117.9329321,6049394.43816181,2175836.17094864
78,206301302,NEWPORT SUBACUTE HEALTHCARE CENTER,60000158,Parent Facility,2570 NEWPORT BLVD,COSTA MESA,92627,30,Orange,Not Applicable,137,Open,10/12/1999 12:00:00 AM,Long Term Care Facility,Skilled Nursing Facility,33.662118,-117.897567,6060361.43361622,2188506.67054197
79,206301327,COUNTRY VILLA PLAZA CONVALESCENT CENTER,60000168,Parent Facility,1209 Hemlock Way,Santa Ana,92707,30,Orange,Not Applicable,145,Open,11/10/1962 12:00:00 AM,Long Term Care Facility,Skilled Nursing Facility,33.70983,-117.88418,6064706.49579223,2205802.32722355
80,206304002,PALM TERRACE HEALTHCARE & REHABILITATION CENTER,60000226,Parent Facility,24962 Cll Aragon,Laguna Woods,92637,30,Orange,Not Applicable,99,Open,3/18/1987 12:00:00 AM,Long Term Care Facility,Skilled Nursing Facility,33.5996717,-117.7154684,6115445.73256813,2164958.54637848
81,206304007,LAKE FOREST NURSING CENTER,60000230,Parent Facility,25652 Old Trabuco Rd,Lake Forest,92630,30,Orange,Not Applicable,175,Open,6/26/1987 12:00:00 AM,Long Term Care Facility,Skilled Nursing Facility,33.64532,-117.68316,6125511.09039013,2181430.89171456
82,206304020,FREEDOM VILLAGE HEALTHCARE CENTER,60000246,Parent Facility,23442 EL TORO RD,EL TORO,92630,30,Orange,Not Applicable,52,Open,9/2/1988 12:00:00 AM,Long Term Care Facility,Skilled Nursing Facility,33.6292,-117.6894,6123531.19179089,2175591.78757915
83,206304068,VILLA VALENCIA HEALTHCARE CENTER,60000296,Parent Facility,24552 PASEO DE VALENCIA,LAGUNA HILLS,92653,30,Orange,Not Applicable,59,Open,5/10/1991 12:00:00 AM,Long Term Care Facility,Skilled Nursing Facility,33.605683,-117.704465,6118826.48269638,2167098.82096931
84,206304158,MISSION CAPISTRANO HEALTHCARE CENTER,60000526,Parent Facility,31741 RANCHO VIEJO RD,SAN JUAN CAPISTRANO,92675,30,Orange,Not Applicable,45,Open,12/14/1999 12:00:00 AM,Long Term Care Facility,Skilled Nursing Facility,33.501532,-117.653682,6133777.34058988,2128992.12881014
85,206304307,NEURORESTORATIVE CALIFORNIA - SANTA ANA,60000874,Parent Facility,18792 E 17th St,Santa Ana,92705,30,Orange,Not Applicable,14,Open,7/21/2003 12:00:00 AM,Long Term Care Facility,Congregate Living Health Facility,33.7592,-117.80535,6088945.32329872,2223399.12372281
86,206330026,"BRIDGE 2 LIFE - EL NIDO, LLC",550003911,Parent Facility,1637 El Nido Ave,Perris,92571,33,Riverside,Not Applicable,6,Open,6/27/2017 12:00:00 AM,Long Term Care Facility,Congregate Living Health Facility,33.8025,-117.19525,6274512.04927738,2236931.70590957
87,206330222,THE SPRINGS AT THE CARLOTTA,250000099,Parent Facility,41505 Carlotta Dr,Palm Desert,92211,33,Riverside,Not Applicable,59,Open,4/29/1986 12:00:00 AM,Long Term Care Facility,Skilled Nursing Facility,33.74674,-116.34427,6533013.17105363,2215352.02367531
88,206330223,CORONA POST ACUTE CENTER,250000512,Parent Facility,2600 S Main St,Corona,92882,33,Riverside,Not Applicable,176,Open,6/6/1985 12:00:00 AM,Long Term Care Facility,Skilled Nursing Facility,33.84902,-117.5705,6160734.19120364,2255097.77259573
89,206331148,THE BRADLEY GARDENS,250000129,Parent Facility,980 WEST 7TH STREET,SAN JACINTO,92582,33,Riverside,Not Applicable,44,Open,4/3/1964 12:00:00 AM,Long Term Care Facility,Skilled Nursing Facility,33.7801524,-116.9779143,6340478.61911564,2228269.85348265
90,206331193,DEVONSHIRE CARE CENTER,250000144,Parent Facility,1350 E Devonshire Ave,Hemet,92544,33,Riverside,Not Applicable,99,Open,9/5/1969 12:00:00 AM,Long Term Care Facility,Skilled Nursing Facility,33.7512615,-116.9577446,6346536.13685621,2217714.57177173
91,206331200,SAN JACINTO HEALTHCARE,250000242,Parent Facility,275 N San Jacinto St,Hemet,92543,33,Riverside,Not Applicable,99,Open,12/18/1964 12:00:00 AM,Long Term Care Facility,Skilled Nursing Facility,33.75041,-116.95869,6346246.66072914,2217406.6734374
92,206331217,DESERT SPRINGS HEALTHCARE & WELLNESS CENTRE,250000156,Parent Facility,82262 Valencia Ave,Indio,92201,33,Riverside,Not Applicable,68,Open,8/13/1962 12:00:00 AM,Long Term Care Facility,Skilled Nursing Facility,33.72443,-116.23024,6567678.63157822,2207221.15542264
93,206331256,MEADOWBROOK POST ACUTE,250000172,Parent Facility,461 E Johnston Ave,Hemet,92543,33,Riverside,Not Applicable,64,Open,1/1/1962 12:00:00 AM,Long Term Care Facility,Skilled Nursing Facility,33.7330052,-116.9684735,6343229.13165922,2211093.65653589
94,206331305,RAMONA REHABILITATION AND POST ACUTE CARE CENTER,250000190,Parent Facility,485 W JOHNSTON AVE,HEMET,92543,33,Riverside,Not Applicable,104,Open,7/23/1970 12:00:00 AM,Long Term Care Facility,Skilled Nursing Facility,33.732863,-116.975616,6341057.23606864,2211056.95024447
95,206331329,DESTINY CARE PROVIDERS,550004072,Parent Facility,4026 Bordeaux Ln,Hemet,92544,33,Riverside,Not Applicable,6,Open,11/30/2017 12:00:00 AM,Long Term Care Facility,Congregate Living Health Facility,33.761,-116.92924,6355223.68116088,2221200.6737234
96,206331346,LIFE CARE CENTER OF MENIFEE,250000208,Parent Facility,27600 ENCANTO DR,SUN CITY,92586,33,Riverside,Not Applicable,99,Open,4/28/1970 12:00:00 AM,Long Term Care Facility,Skilled Nursing Facility,33.718376,-117.188425,6276309.84784713,2206301.74190715
97,206331375,"CENTINELA GRAND, INC.",250000222,Parent Facility,2225 N PERRIS BLVD,PERRIS,92571,33,Riverside,Not Applicable,109,Open,5/8/1970 12:00:00 AM,Long Term Care Facility,Skilled Nursing Facility,33.812423,-117.225934,6265224.60033263,2240628.42653447
98,206332173,RANCHO MIRAGE HEALTH AND REHABILITATION CENTER,250000245,Parent Facility,39950 VISTA DEL SOL,RANCHO MIRAGE,92270,33,Riverside,Not Applicable,99,Open,12/30/1986 12:00:00 AM,Long Term Care Facility,Skilled Nursing Facility,33.758745,-116.397534,6516827.66569506,2219739.36759089
99,206334012,MANORCARE HEALTH SERVICES - HEMET,250000276,Parent Facility,1717 WEST STETSON AVENUE,HEMET,92545,33,Riverside,Not Applicable,178,Open,1/11/1988 12:00:00 AM,Long Term Care Facility,Skilled Nursing Facility,33.72929325,-116.98953242,6336817.00734438,2209787.70015831
100,206334020,MANORCARE HEALTH SERVICES-PALM DESERT,250000317,Parent Facility,74350 COUNTRY CLUB DR,PALM DESERT,92260,33,Riverside,Not Applicable,178,Open,1/5/1989 12:00:00 AM,Long Term Care Facility,Skilled Nursing Facility,33.75816,-116.36858,6525627.91581105,2219515.25780289
101,206334030,MONTEREY PALMS HEALTH CARE CENTER,250000340,Parent Facility,44610 Monterey Ave,Palm Desert,92260,33,Riverside,Not Applicable,99,Open,12/4/1989 12:00:00 AM,Long Term Care Facility,Skilled Nursing Facility,33.72476,-116.39117,6518745.24289663,2207369.72763206
102,206334032,HEMET VALLEY HEALTH CARE CENTER D/P SNF,250000145,Distinct Part Facility,371 N WESTON PL,HEMET,92543,33,Riverside,None,90,Open,3/6/2003 12:00:00 AM,Hospital,General Acute Care Hospital,33.75253,-116.95988,6345890.18900114,2218180.57608905
103,206334051,"VILLAGE HEALTHCARE CENTER, THE",250000405,Parent Facility,2400 W ACACIA AVE,HEMET,92545,33,Riverside,Not Applicable,54,Open,1/7/1991 12:00:00 AM,Long Term Care Facility,Skilled Nursing Facility,33.74388,-116.99665,6334690.96960172,2215111.02546965
104,206334439,INDIO NURSING AND REHABILITATION CENTER,250000584,Parent Facility,47763 MONROE ST,INDIO,92201,33,Riverside,Not Applicable,99,Open,5/9/1995 12:00:00 AM,Long Term Care Facility,Skilled Nursing Facility,33.70184,-116.234164,6566486.71992005,2199000.62888473
105,206334502,MURRIETA HEALTH AND REHABILITATION CENTER,250000748,Parent Facility,24100 MONROE AVE,MURRIETA,92562,33,Riverside,Not Applicable,145,Open,8/18/1999 12:00:00 AM,Long Term Care Facility,Skilled Nursing Facility,33.577101,-117.21182,6268721.77804956,2154960.78356564
106,206334506,BAYSHIRE RANCHO MIRAGE,250000759,Parent Facility,72201 Country Club Dr,Rancho Mirage,92270,33,Riverside,Not Applicable,45,Open,11/27/2000 12:00:00 AM,Long Term Care Facility,Skilled Nursing Facility,33.75777,-116.40467,6514658.17134638,2219387.71147007
107,206334659,PANDA WAY,550002029,Parent Facility,1331 Addison Way,Perris,92571,33,Riverside,Not Applicable,6,Open,8/20/2013 12:00:00 AM,Long Term Care Facility,Congregate Living Health Facility,33.80281,-117.19664,6274090.81586789,2237048.34150305
108,206334688,THE SPRINGS HEALTH AND REHABILITATION CENTER,550004835,Parent Facility,25924 Jackson Ave,Murrieta,92563,33,Riverside,Not Applicable,170,Open,8/6/2019 12:00:00 AM,Long Term Care Facility,Skilled Nursing Facility,33.55627,-117.17742,6279131.53314863,2147286.20705131
109,206334689,TEMECULA HEALTHCARE CENTER,550006177,Parent Facility,44280 Campanula Way,Temecula,92592,33,Riverside,Not Applicable,116,Open,4/16/2021 12:00:00 AM,Long Term Care Facility,Skilled Nursing Facility,33.48356,-117.10068,6302293.99502572,2120630.41160972
110,206334741,"CONGREGATE LIVING HOME RIVERSIDE, INC.",550003687,Parent Facility,951 Cornflower Dr,Hemet,92545,33,Riverside,Not Applicable,6,Open,10/5/2016 12:00:00 AM,Long Term Care Facility,Congregate Living Health Facility,33.76284,-117.01405,6329452.0748958,2222048.63298547
111,206334749,CONGREGATE SAN JACINTO,550003874,Parent Facility,699 Winners Cir,San Jacinto,92582,33,Riverside,Not Applicable,6,Open,5/4/2017 12:00:00 AM,Long Term Care Facility,Congregate Living Health Facility,33.78027,-117.00059,6333588.56924747,2228361.50060906
112,206370246,"NORTH COUNTY VILLA, INC.",550005604,Parent Facility,1519 Anthony Heights Dr,Escondido,92026,37,San Diego,Not Applicable,6,Open,7/21/2020 12:00:00 AM,Long Term Care Facility,Congregate Living Health Facility,33.14198,-117.11016,6298378.24596746,1996370.65422423
113,206370288,COASTAL INJURY CARE CENTER,550005821,Parent Facility,8780 Elden St,La Mesa,91942,37,San Diego,Not Applicable,6,Open,10/27/2020 12:00:00 AM,Long Term Care Facility,Congregate Living Health Facility,32.78608,-117.00807,6328685.58003771,1866637.95699723
114,206370655,ARROYO VISTA NURSING CENTER,90000016,Parent Facility,3022 45TH ST,SAN DIEGO,92105,37,San Diego,Not Applicable,53,Open,1/1/1950 12:00:00 AM,Long Term Care Facility,Skilled Nursing Facility,32.737204,-117.097962,6300914.18873022,1849067.95965698
115,206370659,ESCONDIDO POST ACUTE REHAB,80000019,Parent Facility,421 E MISSION AVE,ESCONDIDO,92025,37,San Diego,Not Applicable,180,Open,2/4/1969 12:00:00 AM,Long Term Care Facility,Skilled Nursing Facility,33.13151,-117.08133,6307172.44589873,1992489.65903348
116,206370660,COUNTRY MANOR LA MESA HEALTHCARE CENTER,80000020,Parent Facility,5696 LAKE MURRAY BLVD,LA MESA,91942,37,San Diego,Not Applicable,99,Open,3/22/1968 12:00:00 AM,Long Term Care Facility,Skilled Nursing Facility,32.783162,-117.029218,6322178.15342005,1865624.19754182
117,206370667,GROSSMONT POST ACUTE CARE,80000024,Parent Facility,8787 CENTER DR,LA MESA,91942,37,San Diego,Not Applicable,90,Open,12/27/1966 12:00:00 AM,Long Term Care Facility,Skilled Nursing Facility,32.78168,-117.00831,6328600.17666522,1865037.61177273
118,206370669,VICTORIA POST ACUTE CARE,90000025,Parent Facility,654 S ANZA ST,EL CAJON,92020,37,San Diego,Not Applicable,120,Open,11/13/1974 12:00:00 AM,Long Term Care Facility,Skilled Nursing Facility,32.788754,-116.948362,6347042.42488563,1867482.69612139
119,206370670,VILLA LAS PALMAS HEALTHCARE CENTER,90000026,Parent Facility,622 S ANZA ST,EL CAJON,92020,37,San Diego,Not Applicable,151,Open,3/1/1971 12:00:00 AM,Long Term Care Facility,Skilled Nursing Facility,32.789545,-116.948362,6347044.35237522,1867770.49213372
120,206370671,SOMERSET SUBACUTE AND CARE,90000027,Parent Facility,151 CLAYDELLE AVE,EL CAJON,92020,37,San Diego,Not Applicable,65,Open,1/22/1965 12:00:00 AM,Long Term Care Facility,Skilled Nursing Facility,32.79437,-116.9587,6343879.18055597,1869547.44789739
121,206370677,THE COVE AT LA JOLLA,80000031,Parent Facility,7160 FAY AVE,LA JOLLA,92037,37,San Diego,Not Applicable,59,Open,2/25/1964 12:00:00 AM,Long Term Care Facility,Skilled Nursing Facility,32.83589,-117.272517,6247590.62214921,1885454.24876089
122,206370678,MISSION HILLS POST ACUTE CARE,90000032,Parent Facility,3680 REYNARD WAY,SAN DIEGO,92103,37,San Diego,Not Applicable,75,Open,2/1/1962 12:00:00 AM,Long Term Care Facility,Skilled Nursing Facility,32.744863,-117.171625,6278287.33897088,1852046.77456547
123,206370684,COMMUNITY CARE CENTER,90000033,Parent Facility,8665 LA MESA BLVD,LA MESA,91941,37,San Diego,Not Applicable,119,Open,1/2/1968 12:00:00 AM,Long Term Care Facility,Skilled Nursing Facility,32.769404,-117.010641,6327851.16143097,1860576.37069523
124,206370687,WINDSOR GARDENS CONVALESCENT CENTER OF SAN DIEGO,90000035,Parent Facility,220 E 24TH ST,NATIONAL CITY,91950,37,San Diego,Not Applicable,98,Open,3/22/1968 12:00:00 AM,Long Term Care Facility,Skilled Nursing Facility,32.66268782,-117.09915274,6300327.22960231,1821959.35180081
125,206370692,UNIVERSITY CARE CENTER,90000037,Parent Facility,5602 UNIVERSITY AVE,SAN DIEGO,92105,37,San Diego,Not Applicable,87,Open,11/26/1956 12:00:00 AM,Long Term Care Facility,Skilled Nursing Facility,32.74788,-117.07521,6307941.2320908,1852896.12752557
126,206370702,PALOMAR VISTA HEALTHCARE CENTER,80000042,Parent Facility,201 N FIG ST,ESCONDIDO,92025,37,San Diego,Not Applicable,74,Open,7/30/1962 12:00:00 AM,Long Term Care Facility,Skilled Nursing Facility,33.12588,-117.07342,6309577.7327548,1990422.01979606
127,206370703,BRIGHTON PLACE - SAN DIEGO,90000043,Parent Facility,1350 Euclid Ave,San Diego,92105,37,San Diego,Not Applicable,99,Open,6/28/1967 12:00:00 AM,Long Term Care Facility,Skilled Nursing Facility,32.7191,-117.08499,6304850.36130406,1842448.89776389
128,206370704,FALLBROOK SKILLED NURSING,550003129,Parent Facility,325 Potter St,Fallbrook,92028,37,San Diego,Not Applicable,93,Open,7/20/2015 12:00:00 AM,Long Term Care Facility,Skilled Nursing Facility,33.37942,-117.2428,6258601.35898598,2083121.97383147
129,206370708,FREDERICKA MANOR CARE CENTER,90000047,Parent Facility,111 3rd Ave,Chula Vista,91910,37,San Diego,Not Applicable,174,Open,7/12/1965 12:00:00 AM,Long Term Care Facility,Skilled Nursing Facility,32.6479,-117.08239,6305443.22002646,1816537.40956073
130,206370710,FRIENDSHIP MANOR NURSING AND REHABILITATION CENTER,90000049,Parent Facility,902 EUCLID AVE,NATIONAL CITY,91950,37,San Diego,Not Applicable,104,Open,8/22/1968 12:00:00 AM,Long Term Care Facility,Skilled Nursing Facility,32.681694,-117.082003,6305660.4590933,1828831.92762256
131,206370711,ABBY GARDENS HEALTHCARE CENTER,80000282,Parent Facility,8060 FROST ST,SAN DIEGO,92123,37,San Diego,Not Applicable,99,Open,11/12/1965 12:00:00 AM,Long Term Care Facility,Skilled Nursing Facility,32.800369,-117.151794,6284559.52655771,1872188.3599384
132,206370712,THE SHORES POST-ACUTE,80000051,Parent Facility,2828 Meadow Lark Dr,San Diego,92123,37,San Diego,Not Applicable,305,Open,7/1/1968 12:00:00 AM,Long Term Care Facility,Skilled Nursing Facility,32.79411,-117.15435,6283754.36543839,1869917.93436114
133,206370713,GOLDEN HILL POST ACUTE,90000052,Parent Facility,1201 34th St,San Diego,92102,37,San Diego,Not Applicable,99,Open,12/29/1969 12:00:00 AM,Long Term Care Facility,Skilled Nursing Facility,32.71819,-117.12103,6293762.93695664,1842208.49502948
134,206370715,PARKWAY HILLS NURSING AND REHABILITATION,80000053,Parent Facility,7760 PARKWAY DR,LA MESA,91942,37,San Diego,Not Applicable,60,Open,1/7/1957 12:00:00 AM,Long Term Care Facility,Skilled Nursing Facility,32.774285,-117.030348,6321806.6827063,1862397.02125339
135,206370717,SAN DIEGO POST-ACUTE CENTER,90000055,Parent Facility,1201 S ORANGE AVE,EL CAJON,92020,37,San Diego,Not Applicable,240,Open,1/28/1954 12:00:00 AM,Long Term Care Facility,Skilled Nursing Facility,32.779199,-116.963836,6342263.0669903,1864038.43102831
136,206370718,HILLCREST MANOR SANITARIUM,90000056,Parent Facility,1889 NATIONAL CITY BLVD,NATIONAL CITY,91950,37,San Diego,Not Applicable,60,Open,7/1/1957 12:00:00 AM,Long Term Care Facility,Skilled Nursing Facility,32.666471,-117.103049,6299139.36911714,1823345.59443514
137,206370719,BALBOA NURSING AND REHABILITATION CENTER,90000057,Parent Facility,3520 4th Ave,San Diego,92103,37,San Diego,Not Applicable,194,Open,9/17/1969 12:00:00 AM,Long Term Care Facility,Skilled Nursing Facility,32.742,-117.16158,6281366.80754948,1850977.96928839
138,206370720,HILLDALE HABILITATION CENTER,90000058,Parent Facility,7979 La Mesa Blvd,La Mesa,91942,37,San Diego,Not Applicable,57,Open,1/27/1964 12:00:00 AM,Long Term Care Facility,ICF/Dev. Disabled,32.76436,-117.02586,6323159.30893806,1858775.65054339
139,206370723,PALOMAR HEIGHTS POST ACUTE REHAB,80000060,Parent Facility,1260 E Ohio Ave,Escondido,92027,37,San Diego,Not Applicable,98,Open,1/3/1963 12:00:00 AM,Long Term Care Facility,Skilled Nursing Facility,33.12868,-117.06431,6312374.68647847,1991418.87049264
140,206370732,KEARNY MESA CONVALESCENT AND NURSING HOME,80000063,Parent Facility,7675 Family Cir,San Diego,92111,37,San Diego,Not Applicable,98,Open,11/12/1965 12:00:00 AM,Long Term Care Facility,Skilled Nursing Facility,32.79927,-117.15742,6282827.28592771,1871803.50703356
141,206370735,ARBOR HILLS NURSING CENTER,80000066,Parent Facility,7800 PARKWAY DR,LA MESA,91942,37,San Diego,Not Applicable,100,Open,5/24/1966 12:00:00 AM,Long Term Care Facility,Skilled Nursing Facility,32.774309,-117.029472,6322076.00795506,1862403.73908773
142,206370736,LEMON GROVE CARE AND REHABILITATION CENTER,90000067,Parent Facility,8351 BROADWAY,LEMON GROVE,91945,37,San Diego,Not Applicable,158,Open,2/10/1964 12:00:00 AM,Long Term Care Facility,Skilled Nursing Facility,32.746831,-117.017617,6325646.33053881,1852379.2027064
143,206370737,PARKSIDE HEALTH AND WELLNESS CENTER,90000068,Parent Facility,444 W Lexington Ave,El Cajon,92020,37,San Diego,Not Applicable,52,Open,5/17/1966 12:00:00 AM,Long Term Care Facility,Skilled Nursing Facility,32.7930111,-116.9672913,6341235.6221948,1869071.08303648
144,206370740,COTTONWOOD CANYON HEALTHCARE CENTER,90000071,Parent Facility,1391 E MADISON AVE,EL CAJON,92021,37,San Diego,Not Applicable,96,Open,11/23/1966 12:00:00 AM,Long Term Care Facility,Skilled Nursing Facility,32.800063,-116.931802,6352158.64857705,1871563.66269697
145,206370741,MAGNOLIA POST ACUTE CARE,90000072,Parent Facility,635 S Magnolia Ave,El Cajon,92020,37,San Diego,Not Applicable,99,Open,2/16/1968 12:00:00 AM,Long Term Care Facility,Skilled Nursing Facility,32.788679,-116.9615089,6343001.85914789,1867482.72532082
146,206370747,HILLCREST HEIGHTS HEALTHCARE CENTER,90000077,Parent Facility,4033 6th Ave,San Diego,92103,37,San Diego,Not Applicable,96,Open,1/16/1967 12:00:00 AM,Long Term Care Facility,Skilled Nursing Facility,32.75033,-117.15879,6282251.10499346,1854001.20700832
147,206370750,MOUNT MIGUEL COVENANT VILLAGE HEALTH FACILITY,90000080,Parent Facility,325 KEMPTON ST,SPRING VALLEY,91977,37,San Diego,Not Applicable,90,Open,4/11/1972 12:00:00 AM,Long Term Care Facility,Skilled Nursing Facility,32.703218,-117.001836,6330384.10518397,1836475.81292531
148,206370752,ENCINITAS NURSING AND REHABILITATION CENTER,80000081,Parent Facility,900 SANTA FE DRIVE,ENCINITAS,92024,37,San Diego,Not Applicable,99,Open,5/13/1963 12:00:00 AM,Long Term Care Facility,Skilled Nursing Facility,33.03633751,-117.27281271,6248215.2216218,1958383.95296681
149,206370756,REO VISTA HEALTHCARE CENTER,90000084,Parent Facility,6061 BANBURY ST,SAN DIEGO,92139,37,San Diego,Not Applicable,162,Open,7/11/1972 12:00:00 AM,Long Term Care Facility,Skilled Nursing Facility,32.67112,-117.06,6312400.82225297,1824931.41212964
150,206370763,THE PAVILION AT OCEAN POINT,90000088,Parent Facility,3202 DUKE ST,SAN DIEGO,92110,37,San Diego,Not Applicable,133,Open,1/23/1964 12:00:00 AM,Long Term Care Facility,Skilled Nursing Facility,32.753108,-117.218716,6263835.98992088,1855177.81718789
151,206370765,THE ROYAL HOME,80000090,Parent Facility,12436 Royal Rd,El Cajon,92021,37,San Diego,Not Applicable,19,Open,1/1/1962 12:00:00 AM,Long Term Care Facility,Skilled Nursing Facility,32.82412,-116.92401,6354609.60857014,1880300.96379189
152,206370769,LA MESA HEALTHCARE CENTER,90000007,Parent Facility,3780 MASSACHUSETTS AVE,LA MESA,91941,37,San Diego,Not Applicable,94,Open,2/1/1961 12:00:00 AM,Long Term Care Facility,Skilled Nursing Facility,32.746031,-117.042962,6317851.28051214,1852146.45349997
153,206370770,"JACOB HEALTH CARE CENTER, LP",90000093,Parent Facility,4075 54th St,San Diego,92105,37,San Diego,Not Applicable,128,Open,10/25/1963 12:00:00 AM,Long Term Care Facility,Skilled Nursing Facility,32.7501,-117.07941,6306656.3015898,1853714.0878319
154,206370776,BRIGHTON PLACE SPRING VALLEY,90000095,Parent Facility,9009 CAMPO ROAD,SPRING VALLEY,91977,37,San Diego,Not Applicable,75,Open,6/14/1950 12:00:00 AM,Long Term Care Facility,Skilled Nursing Facility,32.75167998,-117.00273468,6330234.94603346,1854110.07916589
155,206370778,"GRANITE HILLS HEALTHCARE & WELLNESS CENTRE, LLC",90000097,Parent Facility,1340 E. MADISON AVENUE,EL CAJON,92021,37,San Diego,Not Applicable,99,Open,5/24/1966 12:00:00 AM,Long Term Care Facility,Skilled Nursing Facility,32.8002187,-116.93412166,6351446.2198838,1871624.98147197
156,206370779,LA JOLLA NURSING AND REHABILITATION CENTER,80000098,Parent Facility,2552 TORREY PINES RD,LA JOLLA,92037,37,San Diego,Not Applicable,161,Open,7/21/1969 12:00:00 AM,Long Term Care Facility,Skilled Nursing Facility,32.85133,-117.24817,6255122.67467038,1890999.31345814
157,206370781,LA PALOMA HEALTHCARE CENTER,80000100,Parent Facility,3232 Thunder Dr,Oceanside,92056,37,San Diego,Not Applicable,93,Open,2/4/1964 12:00:00 AM,Long Term Care Facility,Skilled Nursing Facility,33.18716,-117.2882,6244046.14203347,2013304.85362348
158,206370784,VALLE VISTA CONVALESCENT HOSPITAL,80000102,Parent Facility,1025 W 2ND AVE,ESCONDIDO,92025,37,San Diego,Not Applicable,59,Open,1/17/1961 12:00:00 AM,Long Term Care Facility,Skilled Nursing Facility,33.113011,-117.093656,6303344.66680889,1985789.29152873
159,206370790,LIFE CARE CENTER OF VISTA,80000108,Parent Facility,304 N MELROSE DR,VISTA,92083,37,San Diego,Not Applicable,176,Open,6/28/1960 12:00:00 AM,Long Term Care Facility,Skilled Nursing Facility,33.200563,-117.255702,6254035.2178558,2018083.92280547
160,206370792,WHITE SANDS OF LA JOLLA,80000109,Parent Facility,7450 OLIVETAS AVE,LA JOLLA,92037,37,San Diego,Not Applicable,38,Open,10/30/1961 12:00:00 AM,Long Term Care Facility,Skilled Nursing Facility,32.837973,-117.279609,6245419.77478489,1886233.54116556
161,206370793,AMAYA SPRINGS HEALTH CARE CENTER,90000110,Parent Facility,8625 LAMAR ST,SPRING VALLEY,91977,37,San Diego,Not Applicable,50,Open,4/14/1958 12:00:00 AM,Long Term Care Facility,Skilled Nursing Facility,32.738563,-117.013869,6326776.69146705,1849362.53649564
162,206370794,LAKESIDE SPECIAL CARE CENTER,80000111,Parent Facility,11962 WOODSIDE AVE,LAKESIDE,92040,37,San Diego,Not Applicable,94,Open,3/31/1958 12:00:00 AM,Long Term Care Facility,Skilled Nursing Facility,32.855666,-116.934878,6351346.32178964,1891800.37189539
163,206370853,AVOCADO POST ACUTE,90000117,Parent Facility,510 E WASHINGTON AVE,EL CAJON,92020,37,San Diego,Not Applicable,256,Open,3/23/1962 12:00:00 AM,Long Term Care Facility,Skilled Nursing Facility,32.787837,-116.955969,6344702.33901463,1867164.80075981
164,206370904,SOUTH BAY POST ACUTE CARE,90000120,Parent Facility,553 F ST,CHULA VISTA,91910,37,San Diego,Not Applicable,99,Open,2/17/1976 12:00:00 AM,Long Term Care Facility,Skilled Nursing Facility,32.638481,-117.090375,6302957.70137547,1813130.15522039
165,206371261,PARADISE VALLEY HEALTH CARE CENTER,90000141,Parent Facility,2575 E 8TH ST,NATIONAL CITY,91950,37,San Diego,Not Applicable,86,Open,6/15/1978 12:00:00 AM,Long Term Care Facility,Skilled Nursing Facility,32.68338,-117.08035,6306173.96659647,1829441.2997634
166,206371270,BELLA VISTA HEALTH CENTER,90000142,Parent Facility,7922 PALM ST,LEMON GROVE,91945,37,San Diego,Not Applicable,99,Open,1/1/2010 12:00:00 AM,Long Term Care Facility,Skilled Nursing Facility,32.734837,-117.027745,6322499.71740948,1848038.42595489
167,206371321,REDWOOD TERRACE HEALTH CENTER,80000145,Parent Facility,710 W 13th Ave,Escondido,92025,37,San Diego,Not Applicable,59,Open,4/11/1978 12:00:00 AM,Long Term Care Facility,Skilled Nursing Facility,33.10624,-117.08315,6306541.82609697,1983299.86442098
168,206371458,BRADLEY COURT,80000153,Parent Facility,675 E BRADLEY AVE,EL CAJON,92021,37,San Diego,Not Applicable,56,Open,10/3/1960 12:00:00 AM,Long Term Care Facility,Skilled Nursing Facility,32.818963,-116.951882,6346034.62768863,1878481.14558114
169,206371593,POWAY HEALTHCARE CENTER,80000177,Parent Facility,15632 POMERADO RD,POWAY,92064,37,San Diego,Not Applicable,99,Open,5/19/1981 12:00:00 AM,Long Term Care Facility,Skilled Nursing Facility,32.99601,-117.05804,6313920.07347955,1943133.39422914
170,206371598,ST. PAUL'S HEALTH CARE CENTER,90000181,Parent Facility,235 NUTMEG ST,SAN DIEGO,92103,37,San Diego,Not Applicable,59,Open,1/4/1982 12:00:00 AM,Long Term Care Facility,Skilled Nursing Facility,32.733363,-117.162698,6280995.53237338,1847838.5543074
171,206371658,AVIARA HEALTHCARE CENTER,80000220,Parent Facility,944 REGAL RD,ENCINITAS,92024,37,San Diego,Not Applicable,120,Open,9/3/1984 12:00:00 AM,Long Term Care Facility,Skilled Nursing Facility,33.040346,-117.281663,6245517.44716172,1959869.0897603
172,206371703,BOULDER CREEK POST ACUTE,80000251,Parent Facility,12696 MONTE VISTA RD,POWAY,92064,37,San Diego,Not Applicable,149,Open,7/24/1985 12:00:00 AM,Long Term Care Facility,Skilled Nursing Facility,32.99455,-117.05357,6315286.48282021,1942591.59970906
173,206371716,LIFE CARE CENTER OF ESCONDIDO,80000260,Parent Facility,1980 FELICITA RD,ESCONDIDO,92025,37,San Diego,Not Applicable,120,Open,1/14/1986 12:00:00 AM,Long Term Care Facility,Skilled Nursing Facility,33.098016,-117.082817,6306619.89516655,1980306.83267739
174,206374014,CASTLE MANOR NURSING AND REHABILITATION CENTER,90000294,Parent Facility,541 S V AVE,NATIONAL CITY,91950,37,San Diego,Not Applicable,99,Open,6/19/1987 12:00:00 AM,Long Term Care Facility,Skilled Nursing Facility,32.68452,-117.08566,6304543.45410948,1829869.12567939
175,206374019,STANFORD COURT SKILLED NURSING AND REHAB CENTER,80000299,Parent Facility,8778 CUYAMACA ST,SANTEE,92071,37,San Diego,Not Applicable,105,Open,10/28/1987 12:00:00 AM,Long Term Care Facility,Skilled Nursing Facility,32.835455,-116.984048,6336194.83470422,1884549.59866731
176,206374028,CARMEL MOUNTAIN REHABILITATION & HEALTHCARE CENTER,80000315,Parent Facility,11895 AVENUE OF INDUSTRY,SAN DIEGO,92128,37,San Diego,Not Applicable,120,Open,9/20/1988 12:00:00 AM,Long Term Care Facility,Skilled Nursing Facility,32.990463,-117.075494,6308552.69805947,1941157.1117644
177,206374029,VILLA RANCHO BERNARDO CARE CENTER,80000316,Parent Facility,15720 BERNARDO CENTER DR,SAN DIEGO,92127,37,San Diego,Not Applicable,299,Open,10/12/1988 12:00:00 AM,Long Term Care Facility,Skilled Nursing Facility,33.00511,-117.09345,6303090.15813155,1946530.28933823
178,206374038,CASA DE LAS CAMPANAS,80000313,Parent Facility,18685 WEST BERNARDO DRIVE,SAN DIEGO,92127,37,San Diego,Not Applicable,99,Open,2/24/1989 12:00:00 AM,Long Term Care Facility,Skilled Nursing Facility,33.05170168,-117.07623546,6308501.91633689,1963439.84246132
179,206374041,GROSSMONT GARDENS,80000337,Parent Facility,5480 MARENGO AVE,LA MESA,91942,37,San Diego,Not Applicable,39,Open,8/16/1989 12:00:00 AM,Long Term Care Facility,Skilled Nursing Facility,32.77939,-117.02307,6324057.52695788,1864237.74099715
180,206374043,LA FUENTE POST ACUTE,80000339,Parent Facility,247 E BOBIER DR,VISTA,92084,37,San Diego,Not Applicable,187,Open,4/24/1989 12:00:00 AM,Long Term Care Facility,Skilled Nursing Facility,33.22117,-117.24249,6258147.89598213,2025542.82717898
181,206374058,VISTA KNOLL SPECIALIZED CARE FACILITY,80000353,Parent Facility,2000 WESTWOOD RD,VISTA,92083,37,San Diego,Not Applicable,119,Open,2/5/1990 12:00:00 AM,Long Term Care Facility,Skilled Nursing Facility,33.19173,-117.28484,6245090.56087638,2014957.36770689
182,206374060,VILLAGE SQUARE HEALTHCARE CENTER,80000354,Parent Facility,1586 W SAN MARCOS BLVD,SAN MARCOS,92078,37,San Diego,Not Applicable,118,Open,2/23/1990 12:00:00 AM,Long Term Care Facility,Skilled Nursing Facility,33.131537,-117.202106,6270199.93847905,1992815.69151789
183,206374064,DOROTHY AND JOSEPH GOLDBERG HEALTHCARE CENTER,80000367,Parent Facility,211 SAXONY RD,ENCINITAS,92024,37,San Diego,Not Applicable,58,Open,6/1/1990 12:00:00 AM,Long Term Care Facility,Skilled Nursing Facility,33.051284,-117.285435,6244401.07833147,1963860.13853672
184,206374066,COUNTRY HILLS POST ACUTE,80000361,Parent Facility,1580 BROADWAY,EL CAJON,92021,37,San Diego,Not Applicable,305,Open,6/16/1990 12:00:00 AM,Long Term Care Facility,Skilled Nursing Facility,32.80778,-116.92406,6354555.8140583,1874355.93795231
185,206374091,THE SPRINGS AT PACIFIC REGENT,80000401,Parent Facility,3884 NOBEL DR,SAN DIEGO,92122,37,San Diego,Not Applicable,59,Open,1/23/1992 12:00:00 AM,Long Term Care Facility,Skilled Nursing Facility,32.868638,-117.222693,6263005.42399672,1897222.54707465
186,206374248,CARLSBAD BY THE SEA,80000116,Parent Facility,2855 CARLSBAD BLVD,CARLSBAD,92008,37,San Diego,Not Applicable,33,Open,9/11/1998 12:00:00 AM,Long Term Care Facility,Skilled Nursing Facility,33.15958,-117.35223,6224351.60169822,2003471.3926474
187,206374271,TORREY PINES SENIOR LIVING,80000634,Parent Facility,13101 HARTFIELD AVE,SAN DIEGO,92130,37,San Diego,Not Applicable,45,Open,8/5/1999 12:00:00 AM,Long Term Care Facility,Skilled Nursing Facility,32.95853,-117.23115,6260716.55259022,1929952.36678548
188,206374272,BAYSHIRE CARLSBAD,80000627,Parent Facility,3140 El Camino Real,Carlsbad,92008,37,San Diego,Not Applicable,45,Open,3/8/1999 12:00:00 AM,Long Term Care Facility,Skilled Nursing Facility,33.17401,-117.32429,6232955.95095931,2008632.27635448
189,206374284,LAKEVIEW HOME,80000656,Parent Facility,9472 LOREN DR,LA MESA,91942,37,San Diego,Not Applicable,4,Open,1/10/2001 12:00:00 AM,Long Term Care Facility,Hospice Facility,32.780431,-116.993064,6333282.78672256,1864549.44181731
190,206374298,VETERANS HOME OF CALIFORNIA - CHULA VISTA,170000836,Parent Facility,700 E NAPLES CT,CHULA VISTA,91911,37,San Diego,Not Applicable,180,Open,2/28/2002 12:00:00 AM,Long Term Care Facility,Skilled Nursing Facility,32.6217,-117.02745,6322283.49736947,1806874.30290273
191,206374300,VI AT LA JOLLA VILLAGE,80000751,Parent Facility,4171 LAS PALMAS SQ,SAN DIEGO,92122,37,San Diego,Not Applicable,60,Open,2/15/2002 12:00:00 AM,Long Term Care Facility,Skilled Nursing Facility,32.868707,-117.215964,6265071.73318431,1897228.44306023
192,206374307,MONTECATINI,80000755,Parent Facility,2524 LA COSTA AVE,CARLSBAD,92009,37,San Diego,Not Applicable,6,Open,8/22/2002 12:00:00 AM,Long Term Care Facility,Congregate Living Health Facility,33.0867,-117.2532,6254401.92545572,1976649.10081965
193,206374321,VILLA CORONADO (DP/SNF),90000036,Distinct Part Facility,233 PROSPECT PL,CORONADO,92118,37,San Diego,None,122,Open,3/1/1991 12:00:00 AM,Hospital,General Acute Care Hospital,32.69444,-117.16774,6279320.39530373,1833690.70366615
194,206374336,GLENBROOK,80000786,Parent Facility,1950 CALLE BARCELONA,CARLSBAD,92009,37,San Diego,Not Applicable,94,Open,3/18/2004 12:00:00 AM,Long Term Care Facility,Skilled Nursing Facility,33.07181,-117.26742,6249993.77941638,1971273.82712139
195,206374373,MONTECATINI II,550000199,Parent Facility,2556 LA COSTA AVE,CARLSBAD,92009,37,San Diego,Not Applicable,6,Open,6/16/2006 12:00:00 AM,Long Term Care Facility,Congregate Living Health Facility,33.086746,-117.253079,6254439.14618181,1976665.48038006
196,206374375,CENTER FOR DISCOVERY LA JOLLA,550000153,Parent Facility,3013 WOODFORD DR,LA JOLLA,92037,37,San Diego,Not Applicable,6,Open,4/21/2006 12:00:00 AM,Long Term Care Facility,Congregate Living Health Facility,32.848315,-117.238993,6257930.52961896,1889875.50894722
197,206374431,PARKVIEW HOME,550001054,Parent Facility,5788 Lyden Way,San Diego,92120,37,San Diego,Not Applicable,4,Open,5/12/2009 12:00:00 AM,Long Term Care Facility,Hospice Facility,32.7846612,-117.0738651,6308460.48564547,1866275.14801157
198,206374458,MEADOWBROOK VILLAGE CHRISTIAN RETIREMENT COMMUNITY,550003847,Parent Facility,100 Holland Gln,Escondido,92026,37,San Diego,Not Applicable,19,Open,4/18/2017 12:00:00 AM,Long Term Care Facility,Skilled Nursing Facility,33.15657,-117.09312,6303636.94279914,2001636.49146156
199,206374473,NEURORESTORATIVE CALIFORNIA - LA MESA,550002088,Parent Facility,5640 Aztec Dr,LA Mesa,91942,37,San Diego,Not Applicable,15,Open,10/3/2012 12:00:00 AM,Long Term Care Facility,Congregate Living Health Facility,32.7819542,-117.0276399,6322659.89491063,1865181.13510773
200,206374497,EDGEMOOR HOSPITAL DP/SNF,90000092,Distinct Part Facility,655 PARK CENTER DRIVE,SANTEE,92071,37,San Diego,Not Applicable,192,Open,3/30/2010 12:00:00 AM,Hospital,Acute Psychiatric Hospital,32.8525382,-116.97508,6338992.68901664,1890745.83496247
201,206374515,"CENTER FOR DISCOVERY, DEL MAR",550002860,Parent Facility,4421 Carmel Valley Rd,San Diego,92130,37,San Diego,Not Applicable,6,Open,10/15/2014 12:00:00 AM,Long Term Care Facility,Congregate Living Health Facility,32.94774,-117.19726,6271075.86750147,1925930.48276889
202,206374516,PACIFICA HOUSE,550002537,Parent Facility,4411 Park Dr,Carlsbad,92008,37,San Diego,Not Applicable,6,Open,1/1/2014 12:00:00 AM,Long Term Care Facility,Hospice Facility,33.14874,-117.32568,6232435.79419123,1999442.57557382
203,206374542,BONITAVIEW HOME,550003289,Parent Facility,3850 Valley Vista Rd,Bonita,91902,37,San Diego,Not Applicable,6,Open,11/19/2015 12:00:00 AM,Long Term Care Facility,Hospice Facility,32.66044,-117.04511,6316953.34956522,1821010.36452556
204,206374564,MONTECATINI 3,550003775,Parent Facility,7324 El Fuerte St,Carlsbad,92009,37,San Diego,Not Applicable,6,Open,12/13/2016 12:00:00 AM,Long Term Care Facility,Congregate Living Health Facility,33.09625,-117.24973,6255498.02956273,1980113.50858898
205,306130502,EL CENTRO HEALTH CLINIC,90000485,Parent Facility,852 E Danenberg Dr,El Centro,92243,13,Imperial,Not Applicable,,Open,9/25/2019 12:00:00 AM,Clinic,Community Clinic,32.76698,-115.52747,6783780.47201148,1859611.12787506
206,306130675,"CLINICAS DE SALUD DEL PUEBLO, INC",90000030,Parent Facility,900 Main St,Brawley,92227,13,Imperial,Not Applicable,,Open,4/22/1971 12:00:00 AM,Clinic,Community Clinic,32.97861,-115.52854,6782918.74932547,1936607.9062959
207,306131254,CLINICAS DE SALUD DEL PUEBLO INC,90000137,Parent Facility,223 W Cole Blvd,Calexico,92231,13,Imperial,Not Applicable,,Open,5/17/1978 12:00:00 AM,Clinic,Community Clinic,32.69404,-115.50284,6791541.93516305,1833126.19528073
208,306134002,EL CENTRO DESERT VALLEY DIALYSIS CENTER,80000702,Parent Facility,110 S 5th St,El Centro,92243,13,Imperial,Not Applicable,,Open,10/31/1989 12:00:00 AM,Clinic,Chronic Dialysis Clinic,32.79265,-115.55475,6775332.27827796,1868893.84060881
209,306134005,NILAND HEALTH CLINIC,90000456,Parent Facility,8027 HWY 111,NILAND,92257,13,Imperial,Not Applicable,,Open,10/7/1993 12:00:00 AM,Clinic,Community Clinic,33.25725,-115.54574,6776959.35179546,2037953.28759423
210,306134020,BRAWLEY DENTAL CLINIC,90000670,Parent Facility,1166 K ST,BRAWLEY,92227,13,Imperial,Not Applicable,,Open,2/1/2003 12:00:00 AM,Clinic,Community Clinic,32.9727461,-115.5228187,6784688.13915938,1934486.57884565
211,306134023,FRESENIUS MEDICAL CARE OF BRAWLEY,550000158,Parent Facility,751 W Legion Rd,Brawley,92227,13,Imperial,Not Applicable,,Open,4/25/2006 12:00:00 AM,Clinic,Chronic Dialysis Clinic,32.95996,-115.5548,6774911.02190264,1929767.58565898
212,306134026,FRESENIUS MEDICAL CARE OF IMPERIAL COUNTY,80000704,Parent Facility,200 Wake Ave,El Centro,92243,13,Imperial,Not Applicable,,Open,5/7/2010 12:00:00 AM,Clinic,Chronic Dialysis Clinic,32.77069,-115.53453,6781600.95570122,1860946.00020531
213,306134031,FRESENIUS MEDICAL CARE CALEXICO DIALYSIS,80000707,Parent Facility,351 E Birch St,Calexico,92231,13,Imperial,Not Applicable,,Open,4/30/2014 12:00:00 AM,Clinic,Chronic Dialysis Clinic,32.6791831,-115.4938222,6794355.51188497,1827740.6988339
214,306134033,PLANNED PARENTHOOD - EL CENTRO,550003076,Parent Facility,1463 S 4th St,El Centro,92243,13,Imperial,Not Applicable,,Open,5/27/2015 12:00:00 AM,Clinic,Community Clinic,32.78039,-115.55235,6776099.67503713,1864438.11100323
215,306300163,MISSION VIEJO DIALYSIS,80000677,Parent Facility,27640 Marguerite Pkwy,Mission Viejo,92692,30,Orange,Not Applicable,,Open,3/1/1984 12:00:00 AM,Clinic,Chronic Dialysis Clinic,33.56216,-117.65823,6132688.98056188,2151069.8651664
216,306300232,SAN JUAN CAPISTRANO SOUTH DIALYSIS,80000680,Parent Facility,31736 Rancho Viejo Rd,San Juan Capistrano,92675,30,Orange,Not Applicable,,Open,7/16/1986 12:00:00 AM,Clinic,Chronic Dialysis Clinic,33.5026178,-117.6524795,6134149.19811389,2129382.25401415
217,306300433,FRESENIUS MEDICAL CARE SAN JUAN CAPISTRANO,550004595,Parent Facility,31001 Rancho Viejo Rd,San Juan Capistrano,92675,30,Orange,Not Applicable,,Open,3/21/2019 12:00:00 AM,Clinic,Chronic Dialysis Clinic,33.50982,-117.65975,6131968.48200288,2132032.59320164
218,306300596,KRISTINA SERGEYEVA FAMILY HEALTH CENTER,550005779,Parent Facility,27800 Medical Center Rd,Mission Viejo,92691,30,Orange,Not Applicable,,Open,11/12/2020 12:00:00 AM,Clinic,Community Clinic,33.56131,-117.66371,6131015.54722898,2150783.18726206
219,306300626,"SANO COMMUNITY HEALTH CENTER, INC.",550005974,Parent Facility,700 W 19th St,Costa Mesa,92627,30,Orange,Not Applicable,,Open,3/16/2021 12:00:00 AM,Clinic,Community Clinic,33.64382,-117.92803,6050986.02881064,2181996.96177664
220,306300667,FAMILIES TOGETHER OF ORANGE COUNTY - MOBILE CLINIC,550005902,Parent Facility,621 W 1st St,Tustin,92780,30,Orange,Not Applicable,,Open,12/18/2020 12:00:00 AM,Clinic,Community Clinic,33.746,-117.83052,6081223.05659105,2218711.28598565
221,306301235,"LAGUNA BEACH COMMUNITY CLINIC, INC",60000137,Parent Facility,362 3rd St,Laguna Beach,92651,30,Orange,Not Applicable,,Open,5/4/1973 12:00:00 AM,Clinic,Community Clinic,33.54388,-117.78087,6095234.75691405,2144945.45090607
222,306304013,SHARE OUR SELVES COMMUNITY HEALTH CENTER,60000232,Parent Facility,1550 Superior Ave,Costa Mesa,92627,30,Orange,Not Applicable,,Open,8/3/1987 12:00:00 AM,Clinic,Community Clinic,33.63299,-117.92669,6051330.43330555,2178050.03758389
223,306304093,AESTHETICARE OUTPATIENT SURGERY CENTER,60000321,Parent Facility,30260 Rancho Viejo Rd,San Juan Capistrano,92675,30,Orange,Not Applicable,,Open,4/3/1992 12:00:00 AM,Clinic,Surgical Clinic,33.52274,-117.66592,6130151.77828722,2136758.90067814
224,306304140,SANTA ANA DIALYSIS CENTER,80000689,Parent Facility,1820 E Deere Ave,Santa Ana,92705,30,Orange,Not Applicable,,Open,2/23/1993 12:00:00 AM,Clinic,Chronic Dialysis Clinic,33.70608,-117.85066,6074878.36816497,2204279.7662923
225,306304188,NEWPORT BEACH DIALYSIS,80000690,Parent Facility,3333 Pacific Coast Hwy,Newport Beach,92663,30,Orange,Not Applicable,,Open,7/28/1995 12:00:00 AM,Clinic,Chronic Dialysis Clinic,33.62122,-117.92699,6051170.24694614,2173769.14719556
226,306304231,SADDLEBACK DIALYSIS,80000693,Parent Facility,23141 PLAZA POINTE DR,LAGUNA HILLS,92653,30,Orange,Not Applicable,,Open,7/31/1997 12:00:00 AM,Clinic,Chronic Dialysis Clinic,33.626727,-117.723239,6113218.8990953,2174835.85995714
227,306304303,RAI - LAGUNA CANYON - IRVINE,80000765,Parent Facility,16255 Laguna Canyon Rd,Irvine,92618,30,Orange,Not Applicable,,Open,1/16/2003 12:00:00 AM,Clinic,Chronic Dialysis Clinic,33.6587,-117.7684,6099642.35177338,2186666.34613864
228,306304305,RAI - EAST FIRST STREET - TUSTIN,80000764,Parent Facility,535 E 1st St,Tustin,92780,30,Orange,Not Applicable,,Open,1/15/2003 12:00:00 AM,Clinic,Chronic Dialysis Clinic,33.74583,-117.81842,6084900.01117939,2218593.88858265
229,306304335,CAMINO HEALTH CENTER,60000060,Parent Facility,30300 CAMINO CAPISTRANO,SAN JUAN CAPISTRANO,92675,30,Orange,Not Applicable,,Open,11/18/2004 12:00:00 AM,Clinic,Community Clinic,33.52204,-117.66873,6129291.98440313,2136515.8529359
230,306304366,NEWPORT - MESA DIALYSIS SERVICES,550001175,Parent Facility,1175 Baker St,Costa Mesa,92626,30,Orange,Not Applicable,,Open,9/8/2009 12:00:00 AM,Clinic,Chronic Dialysis Clinic,33.6801071,-117.9064574,6057760.55036655,2195094.72167031
231,306304411,PLANNED PARENTHOOD/ORANGE AND SAN BERNARDINO CO,60000018,Parent Facility,26137 La Paz Rd,Mission Viejo,92691,30,Orange,Not Applicable,,Open,11/29/2007 12:00:00 AM,Clinic,Community Clinic,33.60039,-117.67359,6128200.16736105,2165043.23256081
232,306304416,FRESENIUS MEDICAL CARE MISSION VIEJO,550000668,Parent Facility,23681 VIA LINDA,MISSION VIEJO,92691,30,Orange,Not Applicable,,Open,2/8/2008 12:00:00 AM,Clinic,Chronic Dialysis Clinic,33.619362,-117.674627,6127978.75310571,2171950.47563607
233,306304423,HURTT FAMILY HEALTH CLINIC,60000772,Parent Facility,1 Hope Dr,Tustin,92782,30,Orange,Not Applicable,,Open,7/1/2008 12:00:00 AM,Clinic,Community Clinic,33.71489,-117.83342,6080169.66663747,2207405.22788915
234,306304431,HURTT FAMILY MOBILE CLINIC,60000873,Parent Facility,1 Hope Dr,Tustin,92782,30,Orange,Not Applicable,,Open,4/25/2008 12:00:00 AM,Clinic,Community Clinic,33.71469,-117.83216,6080551.68490231,2207326.64143215
235,306304482,HURTT PEDIATRIC MOBILE CLINIC,550001809,Parent Facility,1 Hope Dr,Tustin,92782,30,Orange,Not Applicable,,Open,12/7/2011 12:00:00 AM,Clinic,Community Clinic,33.71489,-117.83342,6080169.66663747,2207405.22788915
236,306304507,SATELLITE HEALTHCARE LAGUNA HILLS,550002012,Parent Facility,25251 Paseo de Alicia,Laguna Hills,92653,30,Orange,Not Applicable,,Open,5/16/2012 12:00:00 AM,Clinic,Chronic Dialysis Clinic,33.60146,-117.68959,6123333.99730338,2165499.43998173
237,306304523,LAGUNA HILLS DIALYSIS,550002167,Parent Facility,25332 Cabot Rd,Laguna Hills,92653,30,Orange,Not Applicable,,Open,12/20/2012 12:00:00 AM,Clinic,Chronic Dialysis Clinic,33.5934934,-117.6748281,6127788.90801297,2162539.07385522
238,306304546,NEWPORT SUPERIOR DIALYSIS,550002544,Parent Facility,510 Superior Ave,Newport Beach,92663,30,Orange,Not Applicable,,Open,12/26/2013 12:00:00 AM,Clinic,Chronic Dialysis Clinic,33.6298,-117.92987,6050343.90837573,2176904.97688189
239,306304551,PACIFIC SERVICES FOUNDATIONDS SERVE FOUNDATION,550002620,Parent Facility,17000 Red Hill Ave,Irvine,92614,30,Orange,Not Applicable,,Open,3/20/2014 12:00:00 AM,Clinic,Community Clinic,33.69926,-117.84951,6075190.00796163,2201792.95400873
240,306304556,PREGNANCY RESOURCE CENTER,550002835,Parent Facility,416 Avenida de la Estrella,San Clemente,92672,30,Orange,Not Applicable,,Open,10/8/2014 12:00:00 AM,Clinic,Community Clinic,33.42991,-117.61441,6145407.14738272,2102774.30919865
241,306304561,SOS CHILDREN AND FAMILY HEALTH CENTER,550002878,Parent Facility,307 Placentia Ave,Newport Beach,92663,30,Orange,Not Applicable,,Open,11/14/2014 12:00:00 AM,Clinic,Community Clinic,33.62627,-117.93104,6049967.10073039,2175626.37346798
242,306304576,FAMILIES TOGETHER OF ORANGE COUNTY,550003128,Parent Facility,661 W 1st St,Tustin,92780,30,Orange,Not Applicable,,Open,12/11/2015 12:00:00 AM,Clinic,Community Clinic,33.74578,-117.83125,6080999.9536908,2218634.60274006
243,306304581,BEACHSIDE BIRTH CENTER,550001884,Parent Facility,23141 Moulton Pkwy,Laguna Hills,92653,30,Orange,Not Applicable,,Open,12/31/2015 12:00:00 AM,Clinic,Alternative Birthing Center,33.6263,-117.73056,6110988.34286089,2174712.06328873
244,306304588,SOS BEAUCHAMP DENTAL,550003359,Parent Facility,307 Placentia Ave,Newport Beach,92663,30,Orange,Not Applicable,,Open,1/11/2016 12:00:00 AM,Clinic,Community Clinic,33.62627,-117.93104,6049967.10073039,2175626.37346798
245,306304607,TUSTIN RANCH DIALYSIS,550003434,Parent Facility,721 W 1st St,Tustin,92780,30,Orange,Not Applicable,,Open,3/16/2017 12:00:00 AM,Clinic,Chronic Dialysis Clinic,33.74577,-117.83189,6080805.36549731,2218633.91507739
246,306304608,FRIENDS OF FAMILY HEALTH CENTER,550003485,Parent Facility,13152 Newport Ave,Tustin,92780,30,Orange,Not Applicable,,Open,5/4/2017 12:00:00 AM,Clinic,Community Clinic,33.74743,-117.81261,6086674.73499213,2219149.53806189
247,306304613,CAMINO HEALTH CENTER - LAKE FOREST,550003921,Parent Facility,22481 Aspan St,Lake Forest,92630,30,Orange,Not Applicable,,Open,6/19/2017 12:00:00 AM,Clinic,Community Clinic,33.63578,-117.71265,6116488.1701158,2178084.39971989
248,306304624,NEWPORT IRVINE DIALYSIS,550003126,Parent Facility,4300 Von Karman Ave,Newport Beach,92660,30,Orange,Not Applicable,,Open,6/23/2017 12:00:00 AM,Clinic,Chronic Dialysis Clinic,33.66343,-117.86171,6071278.22280622,2188813.50949523
249,306330385,REDHAWK DIALYSIS,550004262,Parent Facility,44605 Avenida de Missiones,Temecula,92592,33,Riverside,Not Applicable,,Open,5/23/2018 12:00:00 AM,Clinic,Chronic Dialysis Clinic,33.47669,-117.11141,6299001.78999597,2118157.55960006
250,306330396,BIRTH CHOICE CENTERS MOBILE,550002785,Parent Facility,41750 Winchester Rd,Temecula,92590,33,Riverside,Not Applicable,,Open,10/24/2019 12:00:00 AM,Clinic,Free Clinic,33.51774,-117.16841,6281752.86812906,2133242.30928615
251,306330418,INDIO DIALYSIS,550004493,Parent Facility,82900 Avenue 42,Indio,92203,33,Riverside,Not Applicable,,Open,12/12/2018 12:00:00 AM,Clinic,Chronic Dialysis Clinic,33.74414,-116.21875,6571170.21547431,2214394.36581373
252,306330423,REFUGE PREGNANCY CENTER,550004540,Parent Facility,81557 Doctor Carreon Blvd,Indio,92201,33,Riverside,Not Applicable,,Open,1/2/2019 12:00:00 AM,Clinic,Free Clinic,33.70711,-116.24171,6564191.48008797,2200918.07025981
253,306330939,VCC: MOBILE VAN,550004110,Parent Facility,21641 Bundy Canyon Rd,Wildomar,92595,33,Riverside,Not Applicable,,Open,1/18/2018 12:00:00 AM,Clinic,Community Clinic,33.62685,-117.28086,6247873.40275164,2173263.58193372
254,306334002,RAI CORPORATE WAY - PALM DESERT,240000803,Parent Facility,41501 Corporate Way,Palm Desert,92260,33,Riverside,Not Applicable,,Open,3/12/1987 12:00:00 AM,Clinic,Chronic Dialysis Clinic,33.74672,-116.36237,6527510.95568013,2215350.19756348
255,306334003,"KIDNEY INSTITUTE OF THE DESERT, LLC",240000804,Parent Facility,81715 Doctor Carreon Blvd,Indio,92201,33,Riverside,Not Applicable,,Open,3/6/1987 12:00:00 AM,Clinic,Chronic Dialysis Clinic,33.70738,-116.23828,6565234.62727989,2201016.42111298
256,306334009,BARBARA SINATRA CHILDREN'S CENTER AT EISENHOWER,250000253,Parent Facility,39000 Bob Hope Dr,Rancho Mirage,92270,33,Riverside,Not Applicable,,Open,11/1/1987 12:00:00 AM,Clinic,Psychology Clinic,33.76418,-116.40808,6513625.23574822,2221721.84361281
257,306334104,TEMECULA DIALYSIS CENTER,240000807,Parent Facility,40945 County Center Dr,Temecula,92591,33,Riverside,Not Applicable,,Open,10/5/1993 12:00:00 AM,Clinic,Chronic Dialysis Clinic,33.52805,-117.16052,6284190.31929089,2136972.62597248
258,306334451,PLANNED PARENTHOOD-RANCHO MIRAGE CENTER,250000602,Parent Facility,71777 San Jacinto Dr,Rancho Mirage,92270,33,Riverside,Not Applicable,,Open,7/14/1995 12:00:00 AM,Clinic,Community Clinic,33.74363,-116.41218,6512367.49843431,2214245.69681972
259,306334490,KIDNEY INSTITUTE AT EMC LLC,240000813,Parent Facility,39000 Bob Hope Dr,Rancho Mirage,92270,33,Riverside,Not Applicable,,Open,2/24/1998 12:00:00 AM,Clinic,Chronic Dialysis Clinic,33.76462,-116.40807,6513628.51789388,2221881.95352881
260,306334519,LAKE ELSINORE DIALYSIS,240000841,Parent Facility,32291 Mission Trl,Lake Elsinore,92530,33,Riverside,Not Applicable,,Open,9/10/2002 12:00:00 AM,Clinic,Chronic Dialysis Clinic,33.652773,-117.2968444,6243102.57272638,2182744.57707931
261,306334523,RAI - MONROE - INDIO,240000842,Parent Facility,46767 Monroe St,Indio,92201,33,Riverside,Not Applicable,,Open,8/2/2002 12:00:00 AM,Clinic,Chronic Dialysis Clinic,33.70912,-116.23389,6566569.64659147,2201649.77056806
262,306334534,"CAL OAKS THERAPY CENTER, INC.",250000793,Parent Facility,40974 California Oaks Rd,Murrieta,92562,33,Riverside,Not Applicable,,Open,7/21/2003 12:00:00 AM,Clinic,Rehabilitation Clinic,33.56775,-117.20578,6270530.18224114,2151541.37701865
263,306334547,PLANNED PARENTHOOD - COACHELLA VALLEY,250000802,Parent Facility,49111 CA-111 S,Coachella,92236,33,Riverside,Not Applicable,,Open,6/18/2004 12:00:00 AM,Clinic,Community Clinic,33.69198,-116.18458,6581569.75668305,2195418.54648198
264,306334567,MECCA HEALTH CLINIC,550000089,Parent Facility,91275 66th Ave,Mecca,92254,33,Riverside,Not Applicable,,Open,11/3/2005 12:00:00 AM,Clinic,Community Clinic,33.5684003,-116.0743921,6615162.49822447,2150488.65274614
265,306334568,MECCA HEALTH CLINIC,250000612,Parent Facility,91275 66th Ave,Mecca,92254,33,Riverside,Not Applicable,,Open,11/15/2005 12:00:00 AM,Clinic,Community Clinic,33.5684003,-116.0743921,6615162.49822447,2150488.65274614
266,306334578,INDIO SURGERY CENTER INC.,550000265,Parent Facility,46900 Monroe St,Indio,92201,33,Riverside,Not Applicable,,Open,8/28/2006 12:00:00 AM,Clinic,Surgical Clinic,33.70784,-116.23384,6566584.92477614,2201183.99164398
267,306334585,"CENTRO MEDICO, OASIS",550000432,Parent Facility,88775 76th Ave,Thermal,92274,33,Riverside,Not Applicable,,Open,3/20/2007 12:00:00 AM,Clinic,Community Clinic,33.4989,-116.11723,6602145.78180389,2125179.89758947
268,306334614,THERAPY PROFESSIONALS,250000799,Parent Facility,25405 HANCOCK AVE,MURRIETA,92562,33,Riverside,Not Applicable,,Open,4/9/2008 12:00:00 AM,Clinic,Rehabilitation Clinic,33.5585098,-117.1858397,6276573.85289656,2148124.10662223
269,306334625,HEMET DIALYSIS CENTER,240000801,Parent Facility,3050 W Florida Ave,Hemet,92545,33,Riverside,Not Applicable,,Open,5/19/2011 12:00:00 AM,Clinic,Chronic Dialysis Clinic,33.74736,-117.00393,6332487.06718539,2216393.27356131
270,306334631,"LA QUINTA KIDNEY CENTER, LLC",550001444,Parent Facility,44000 Washington St,LA Quinta,92253,33,Riverside,Not Applicable,,Open,6/20/2011 12:00:00 AM,Clinic,Chronic Dialysis Clinic,33.732025,-116.3029615,6545567.79948764,2209988.44680406
271,306334648,BERMUDA DUNES DIALYSIS,550001918,Parent Facility,78030 Wildcat Dr,Palm Desert,92211,33,Riverside,Not Applicable,,Open,10/24/2012 12:00:00 AM,Clinic,Chronic Dialysis Clinic,33.76614,-116.30338,6545446.91357455,2222402.81600414
272,306334651,MURRIETA DIALYSIS CENTER,240000806,Parent Facility,27602 Clinton Keith Rd,Murrieta,92562,33,Riverside,Not Applicable,,Open,9/20/2012 12:00:00 AM,Clinic,Chronic Dialysis Clinic,33.5987814,-117.1778087,6279150.76736213,2162755.67315955
273,306334652,SUN CITY MENIFEE DIALYSIS,550002070,Parent Facility,1702 ILLINOIS AVE,PERRIS,92571,33,Riverside,Not Applicable,,Open,9/25/2012 12:00:00 AM,Clinic,Chronic Dialysis Clinic,33.7469589,-117.186862,6276878.57505614,2216698.19683598
274,306334656,CORONA DIALYSIS CENTER,240000805,Parent Facility,2057 Compton Ave,Corona,92881,33,Riverside,Not Applicable,,Open,5/11/2013 12:00:00 AM,Clinic,Chronic Dialysis Clinic,33.849534,-117.535978,6171217.68204764,2255153.79348107
275,306334661,ANZA INDIAN HEALTH CENTER,550002003,Parent Facility,39100 Contreras Rd,Anza,92539,33,Riverside,Not Applicable,,Open,11/19/2013 12:00:00 AM,Clinic,Community Clinic,33.55407,-116.67463,6432302.02109839,2145492.54692473
276,306334667,COACHELLA KIDNEY INSTITUTE,550002205,Parent Facility,1413 6th St,Coachella,92236,33,Riverside,Not Applicable,,Open,3/6/2014 12:00:00 AM,Clinic,Chronic Dialysis Clinic,33.67826,-116.17735,6583772.46093905,2190427.44229098
277,306334691,ANZA COMMUNITY HEALTH CENTER,550002701,Parent Facility,58581 CA-371,Anza,92539,33,Riverside,Not Applicable,,Open,12/9/2014 12:00:00 AM,Clinic,Community Clinic,33.55695,-116.63975,6442932.4660448,2146499.00718215
278,306334702,PEOPLE'S COMMUNITY CLINIC,550002627,Parent Facility,540 N San Jacinto St,Hemet,92543,33,Riverside,Not Applicable,,Open,3/10/2015 12:00:00 AM,Clinic,Community Clinic,33.7555,-116.95864,6346274.44774705,2219258.75930014
279,306334722,NEIGHBORHOOD HEALTH CARE - DEVONSHIRE AVE,550003562,Parent Facility,903 E Devonshire Ave,Hemet,92543,33,Riverside,Not Applicable,,Open,7/6/2016 12:00:00 AM,Clinic,Community Clinic,33.75116,-116.96275,6345014.40958472,2217688.0016149
280,306334727,HEMET MEDICAL AND DENTAL CENTER,550003373,Parent Facility,1023 E Florida Ave,Hemet,92543,33,Riverside,Not Applicable,,Open,2/4/2016 12:00:00 AM,Clinic,Community Clinic,33.74755,-116.96163,6345345.88661206,2216372.04263264
281,306334728,VCC: LAKE ELSINORE,550003478,Parent Facility,30195 Fraser Dr,Lake Elsinore,92530,33,Riverside,Not Applicable,,Open,10/20/2016 12:00:00 AM,Clinic,Community Clinic,33.68451,-117.3679,6221604.09603839,2194517.08437414
282,306334730,TRUECARE,550003541,Parent Facility,1675 N Perris Blvd,Perris,92571,33,Riverside,Not Applicable,,Open,6/15/2016 12:00:00 AM,Clinic,Community Clinic,33.80293,-117.22601,6265169.17918363,2237174.27071315
283,306334732,BEACHSIDE BIRTH CENTER,550003679,Parent Facility,1353 Old Temescal Rd,Corona,92881,33,Riverside,Not Applicable,,Open,4/4/2017 12:00:00 AM,Clinic,Alternative Birthing Center,33.85387,-117.53772,6170708.28477247,2256738.10232031
284,306334745,COACHELLA HEALTH CLINIC,550000613,Parent Facility,50249 Cesar Chavez St,Coachella,92236,33,Riverside,Not Applicable,,Open,9/25/2018 12:00:00 AM,Clinic,Community Clinic,33.68275,-116.18167,6582457.12334664,2192060.41441873
285,306370369,ST PAUL'S PACE EAST,550004199,Parent Facility,1306 Broadway,El Cajon,92021,37,San Diego,Not Applicable,,Open,3/27/2018 12:00:00 AM,Clinic,Community Clinic,32.80778,-116.9353,6351102.21433821,1874378.45103064
286,306370374,BEST-START BIRTH CENTER,90000446,Parent Facility,3630 Enterprise St,San Diego,92110,37,San Diego,Not Applicable,,Open,11/4/2017 12:00:00 AM,Clinic,Alternative Birthing Center,32.74627,-117.1984,6270059.39315647,1852632.51387957
287,306370378,NEIGHBORHOOD HEALTHCARE-GOLD FAMILY HEALTH CENTER,550004321,Parent Facility,13010 Poway Rd,Poway,92064,37,San Diego,Not Applicable,,Open,8/8/2018 12:00:00 AM,Clinic,Community Clinic,32.95665,-117.04926,6316502.2464648,1928792.00952615
288,306370391,OCEANSIDE DIALYSIS,550004357,Parent Facility,4182 Oceanside Blvd,Oceanside,92056,37,San Diego,Not Applicable,,Open,6/6/2018 12:00:00 AM,Clinic,Chronic Dialysis Clinic,33.20722,-117.2858,6244852.87532814,2020596.11955273
289,306370409,SANDERLING DIALYSIS OF RAMONA,550004359,Parent Facility,2102 Main St,Ramona,92065,37,San Diego,Not Applicable,,Open,8/8/2018 12:00:00 AM,Clinic,Chronic Dialysis Clinic,33.03081,-116.88607,6366723.66865955,1955429.95460972
290,306370410,NATIONAL CITY FAMILY HEALTH CENTER,550002061,Parent Facility,1000 Euclid Ave,National City,91950,37,San Diego,Not Applicable,,Open,11/21/2018 12:00:00 AM,Clinic,Community Clinic,32.68096,-117.08071,6306056.18303938,1828561.69981655
291,306370411,MOUNTAIN HEALTH FAMILY MEDICINE,550004105,Parent Facility,1388 Buckman Springs Rd,Campo,91906,37,San Diego,Not Applicable,,Open,1/23/2018 12:00:00 AM,Clinic,Community Clinic,32.63042,-116.4731,6492981.14580289,1809228.06525557
292,306370412,FAMILY HEALTH-CENTER FOR OLDER ADULTS,550004403,Parent Facility,3420 College Ave,San Diego,92115,37,San Diego,Not Applicable,,Open,10/25/2018 12:00:00 AM,Clinic,Community Clinic,32.74313,-117.05204,6315051.92357805,1851112.31547639
293,306370469,AHF HEALTHCARE CENTER - SAN DIEGO,550004798,Parent Facility,3940 4th Ave,San Diego,92103,37,San Diego,Not Applicable,,Open,7/18/2019 12:00:00 AM,Clinic,Community Clinic,32.74913,-117.16164,6281371.04048064,1853572.25740689
294,306370487,FMG DIALYSIS SERVICES OF COLLEGE,80000757,Parent Facility,5961 University Ave,San Diego,92115,37,San Diego,Not Applicable,,Open,6/18/2019 12:00:00 AM,Clinic,Chronic Dialysis Clinic,32.75135,-117.06829,6310078.80360305,1854141.86716007
295,306370507,SAN YSIDRO HEALTH MATERNAL & CHILD HEALTH CENTER,550004555,Parent Facility,4050 Beyer Blvd,San Ysidro,92173,37,San Diego,Not Applicable,,Open,2/27/2019 12:00:00 AM,Clinic,Community Clinic,32.55828,-117.04684,6316136.8357783,1783844.75152098
296,306370519,HIDDEN VALLEY DIALYSIS,550005374,Parent Facility,1951 Citracado Pkwy,Escondido,92029,37,San Diego,Not Applicable,,Open,3/25/2020 12:00:00 AM,Clinic,Chronic Dialysis Clinic,33.11244,-117.12098,6294976.57429314,1985650.33248906
297,306370543,"GARY AND MARY WEST SENIOR SERVICES, INC.",550004839,Parent Facility,1706 Descanso Ave,San Marcos,92078,37,San Diego,Not Applicable,,Open,7/26/2019 12:00:00 AM,Clinic,Community Clinic,33.14989,-117.19932,6271113.59839714,1999485.42489757
298,306370576,HOPE CLINIC FOR WOMEN,550005671,Parent Facility,125 E Hawthorne St,Fallbrook,92028,37,San Diego,Not Applicable,,Open,7/31/2020 12:00:00 AM,Clinic,Free Clinic,33.38267,-117.25057,6256240.85648914,2084327.15317965
299,306370580,TRUECARE,80000149,Parent Facility,220 Rotanzi St,Ramona,92065,37,San Diego,Not Applicable,,Open,4/21/2020 12:00:00 AM,Clinic,Community Clinic,33.02907,-116.88887,6365861.63921563,1954802.11564231
300,306370619,SAN YSIDRO HEALTH URGENT CARE,550006060,Parent Facility,333 H St,Chula Vista,91910,37,San Diego,Not Applicable,,Open,8/25/2021 12:00:00 AM,Clinic,Community Clinic,32.63439,-117.07848,6306607.71638514,1811612.39480448
301,306370620,"SOCIAL ADVOCATES FOR YOUTH, SAN DIEGO, INC.",550006067,Parent Facility,4775 Viewridge Ave,San Diego,92123,37,San Diego,Not Applicable,,Open,9/3/2021 12:00:00 AM,Clinic,Psychology Clinic,32.82526,-117.12049,6294254.2614333,1881162.79080839
302,306370637,RICHARD J. DONOVAN STATE PRISON DIALYSIS CLINIC,550006502,Parent Facility,480 Alta Rd,San Diego,92154,37,San Diego,Not Applicable,,Open,7/14/2021 12:00:00 AM,Clinic,Chronic Dialysis Clinic,32.57892,-116.91908,6355551.62604305,1791077.70982406
303,306370641,SAN YSIDRO HEALTH EL CAJON/SAN DIEGO PACE,550002514,Parent Facility,875 El Cajon Blvd,El Cajon,92020,37,San Diego,Not Applicable,,Open,10/1/2021 12:00:00 AM,Clinic,Community Clinic,32.78513,-116.97669,6338327.31830014,1866223.6435214
304,306370642,SCRIPPS HEALTH ASC JEFFERSON,550006548,Parent Facility,2205 Vista Way,Oceanside,92054,37,San Diego,Not Applicable,,Open,7/28/2021 12:00:00 AM,Clinic,Surgical Clinic,33.18235,-117.33876,6228560.22549881,2011712.57990514
305,306370645,BIRTH CHOICE OF SAN MARCOS,550003887,Parent Facility,365 S Rancho Santa Fe Rd,San Marcos,92078,37,San Diego,Not Applicable,,Open,12/9/2021 12:00:00 AM,Clinic,Free Clinic,33.14143,-117.20223,6270194.8528593,1996415.48025006
306,306370661,"SAN DIEGO DIALYSIS SERVICES, INC.",80000696,Parent Facility,3960 3rd Ave,San Diego,92103,37,San Diego,Not Applicable,,Open,8/24/1972 12:00:00 AM,Clinic,Chronic Dialysis Clinic,32.74938,-117.16277,6281024.4079718,1853666.25525039
307,306370663,VCC: MOBILE MEDICAL cLINIC,550005986,Parent Facility,465 La Tortuga Dr,Vista,92081,37,San Diego,Not Applicable,,Open,2/4/2022 12:00:00 AM,Clinic,Community Clinic,33.19058,-117.25912,6252954.56089638,2014461.83228065
308,306370665,FRESENIUS KIDNEY CARE HOME TRAINING CENTER OF SAN DIEGO,550007854,Parent Facility,3939 Ruffin Rd,San Diego,92123,37,San Diego,Not Applicable,,Open,2/15/2022 12:00:00 AM,Clinic,Chronic Dialysis Clinic,32.8142,-117.12075,6294140.78462614,1877139.45731965
309,306370738,LINDA VISTA HEALTH CARE CENTER,80000069,Parent Facility,6973 Linda Vista Rd,San Diego,92111,37,San Diego,Not Applicable,,Open,9/21/1972 12:00:00 AM,Clinic,Community Clinic,32.78721,-117.16982,6278978.2526153,1867449.07906264
310,306370813,LOGAN HEIGHTS FAMILY HEALTH CENTER,90000113,Parent Facility,1809 NATIONAL AVE,SAN DIEGO,92113,37,San Diego,Not Applicable,,Open,4/29/1975 12:00:00 AM,Clinic,Community Clinic,32.7014037,-117.1467081,6285812.65266038,1836168.02974823
311,306370847,BEACH AREA FAMILY HEALTH CENTER,80000115,Parent Facility,3705 Mission Blvd,San Diego,92109,37,San Diego,Not Applicable,,Open,1/6/1975 12:00:00 AM,Clinic,Community Clinic,32.78268,-117.25247,6253561.99537705,1866035.08353107
312,306370856,VISTA COMMUNITY CLINIC,80000002,Parent Facility,1000 Vale Terrace Dr,Vista,92084,37,San Diego,Not Applicable,,Open,1/29/1974 12:00:00 AM,Clinic,Community Clinic,33.20906,-117.22881,6262290.01302597,2021097.18088657
313,306370876,IMPERIAL BEACH HEALTH CENTER,90000119,Parent Facility,949 Palm Ave,Imperial Beach,91932,37,San Diego,Not Applicable,,Open,1/29/1982 12:00:00 AM,Clinic,Community Clinic,32.5838,-117.11343,6295695.53971872,1793293.23163973
314,306370934,"SAN DIEGO DIALYSIS SERVICES, INC.",80000697,Parent Facility,303 W 26th St,National City,91950,37,San Diego,Not Applicable,,Open,5/19/1976 12:00:00 AM,Clinic,Chronic Dialysis Clinic,32.65884,-117.10438,6298707.00384013,1820572.52156922
315,306370936,MID-CITY COMMUNITY CLINIC,90000124,Parent Facility,4290 Polk Ave,San Diego,92105,37,San Diego,Not Applicable,,Open,7/1/1976 12:00:00 AM,Clinic,Community Clinic,32.75143,-117.10232,6299616.40458038,1854254.79442765
316,306370941,SAMAHAN HEALTH CENTERS: ERMA ROAD,550004112,Parent Facility,9855 Erma Rd,San Diego,92131,37,San Diego,Not Applicable,,Open,1/22/2018 12:00:00 AM,Clinic,Community Clinic,32.91964,-117.11418,6296477.27207914,1915485.3320713
317,306370973,ESCONDIDO DIALYSIS,80000126,Parent Facility,203 E 2nd Ave,Escondido,92025,37,San Diego,Not Applicable,,Open,4/22/1976 12:00:00 AM,Clinic,Chronic Dialysis Clinic,33.12152,-117.07924,6307783.34297089,1988849.79656257
318,306371128,PLANNED PARENTHOOD OF SDRC - FIRST AVENUE CENTER,90000131,Parent Facility,2017 1st Ave,San Diego,92101,37,San Diego,Not Applicable,,Open,5/20/1977 12:00:00 AM,Clinic,Community Clinic,32.72644,-117.16386,6280616.12368339,1845322.87069048
319,306371226,SAN YSIDRO HEALTH OTAY,90000136,Parent Facility,1637 3rd Ave,Chula Vista,91911,37,San Diego,Not Applicable,,Open,5/23/1977 12:00:00 AM,Clinic,Community Clinic,32.59656,-117.06448,6310810.26178581,1797814.47390956
320,306371257,SAN YSIDRO HEALTH SAN YSIDRO HEALTH CENTER,90000140,Parent Facility,4004 Beyer Blvd,San Ysidro,92173,37,San Diego,Not Applicable,,Open,9/5/1972 12:00:00 AM,Clinic,Community Clinic,32.55828,-117.04684,6316136.8357783,1783844.75152098
321,306371285,SAN YSIDRO HEALTH CHC - OCEAN VIEW,90000143,Parent Facility,3177 Ocean View Blvd,San Diego,92113,37,San Diego,Not Applicable,,Open,8/1/1977 12:00:00 AM,Clinic,Community Clinic,32.70116,-117.12585,6292228.40951389,1836024.82104515
322,306371354,SAMAHAN HEALTH CENTERS: MIRA MESA MEDICAL,80000146,Parent Facility,10737 Camino Ruiz,San Diego,92126,37,San Diego,Not Applicable,,Open,1/3/2019 12:00:00 AM,Clinic,Community Clinic,32.9139,-117.14378,6287376.16495331,1913473.50144932
323,306371451,PLANNED PARENTHOOD - ESCONDIDO CENTER,80000152,Parent Facility,347 W Mission Ave,Escondido,92025,37,San Diego,Not Applicable,,Open,4/24/1978 12:00:00 AM,Clinic,Community Clinic,33.12893,-117.08979,6304575.05279955,1991571.70516072
324,306371511,NEIGHBORHOOD HEALTHCARE EL CAJON,90000156,Parent Facility,855 E Madison Ave,El Cajon,92020,37,San Diego,Not Applicable,,Open,8/18/1978 12:00:00 AM,Clinic,Community Clinic,32.80047,-116.95226,6345873.17984881,1871753.46973206
325,306371576,TRUECARE,80000167,Parent Facility,150 Valpreda Rd,San Marcos,92069,37,San Diego,Not Applicable,,Open,11/1/1979 12:00:00 AM,Clinic,Community Clinic,33.1406,-117.15608,6284318.27277514,1995987.6084024
326,306371581,SAN DIEGO AMERICAN INDIAN HEALTH CENTER,90000168,Parent Facility,2630 1st Ave,San Diego,92103,37,San Diego,Not Applicable,,Open,2/25/1980 12:00:00 AM,Clinic,Community Clinic,32.73276,-117.16397,6280602.45113856,1847622.58951622
327,306371589,PLANNED PARENTHOOD ASSN OF SAN DIEGO CO,80000174,Parent Facility,7526 Clairemont Mesa Blvd,San Diego,92111,37,San Diego,Not Applicable,,Open,10/22/1980 12:00:00 AM,Clinic,Community Clinic,32.83275,-117.15718,6283007.02014831,1883983.98037598
328,306371591,FRESENIUS MEDICAL CARE BALBOA-KEARNY MESA,80000175,Parent Facility,7927 Ostrow St,San Diego,92111,37,San Diego,Not Applicable,,Open,11/13/1981 12:00:00 AM,Clinic,Chronic Dialysis Clinic,32.81329,-117.1548,6283676.6369193,1876897.44402415
329,306371594,PLANNED PARENTHOOD ASSN OF SAN DIEGO COUNTY,90000178,Parent Facility,4575 College Ave,San Diego,92115,37,San Diego,Not Applicable,,Open,6/8/1981 12:00:00 AM,Clinic,Community Clinic,32.76021,-117.06673,6310583.68251455,1857361.68716398
330,306371602,SAMAHAN HEALTH CENTERS: 2743 HIGHLAND,90000183,Parent Facility,2743 Highland Ave,National City,91950,37,San Diego,Not Applicable,,Open,2/16/2019 12:00:00 AM,Clinic,Community Clinic,32.66105,-117.09202,6302517.60678323,1821345.65158464
331,306371654,SAN YSIDRO HEALTH NATIONAL CITY,90000218,Parent Facility,1136 D Ave,National City,91950,37,San Diego,Not Applicable,,Open,4/27/2019 12:00:00 AM,Clinic,Community Clinic,32.67409,-117.1017,6299577.16679797,1826114.26081382
332,306371686,PLANNED PARENTHOOD - FRANCES TORBERT CENTER,90000241,Parent Facility,220 S Euclid Ave,San Diego,92114,37,San Diego,Not Applicable,,Open,7/3/1985 12:00:00 AM,Clinic,Community Clinic,32.70291,-117.08505,6304784.7305298,1836558.55422965
333,306374005,"SAN DIEGO DIALYSIS SERVICES, INC.",80000699,Parent Facility,2252 Verus St,San Diego,92154,37,San Diego,Not Applicable,,Open,11/3/1986 12:00:00 AM,Clinic,Chronic Dialysis Clinic,32.59423,-117.0866,6303990.63894214,1797020.67595647
334,306374011,CATHOLIC CHARITIES,90000125,Parent Facility,349 CEDAR ST,SAN DIEGO,92101,37,San Diego,Not Applicable,,Open,3/22/1986 12:00:00 AM,Clinic,Psychology Clinic,32.7217384,-117.1614426,6281344.61336814,1843605.76651314
335,306374016,RAI - FLETCHER PARKWAY -  EL CAJON,80000301,Parent Facility,858 Fletcher Pky,El Cajon,92020,37,San Diego,Not Applicable,,Open,8/1/1987 12:00:00 AM,Clinic,Chronic Dialysis Clinic,32.80781,-116.97251,6339669.17257181,1874466.55256048
336,306374018,ST. VINCENT DE PAUL VILLAGE FAMILY HEALTH CENTER,90000297,Parent Facility,1501 IMPERIAL AVE,SAN DIEGO,92101,37,San Diego,Not Applicable,,Open,12/1/1987 12:00:00 AM,Clinic,Community Clinic,32.7057571,-117.1498896,6284847.6109553,1837760.37433256
337,306374025,PLANNED PARENTHOOD/MIRA MESA CLINIC,80000305,Parent Facility,10737 Camino Ruiz,San Diego,92126,37,San Diego,Not Applicable,,Open,4/21/1988 12:00:00 AM,Clinic,Community Clinic,32.91397,-117.14277,6287686.33657706,1913496.31439582
338,306374031,VISTA COMMUNITY CLINIC - GRAPEVINE,80000328,Parent Facility,134 Grapevine Rd,Vista,92083,37,San Diego,Not Applicable,,Open,9/8/2009 12:00:00 AM,Clinic,Community Clinic,33.1914245,-117.2754931,6247948.79170847,2014817.96411431
339,306374039,"SAN DIEGO DIALYSIS SERVICES, INC.",80000701,Parent Facility,720 Gateway Center Dr,San Diego,92102,37,San Diego,Not Applicable,,Open,1/20/1989 12:00:00 AM,Clinic,Chronic Dialysis Clinic,32.7138,-117.11423,6295841.1618028,1840593.85849498
340,306374040,PLANNED PARENTHOOD OF SDRC-SURGICAL SERVICES,90000340,Parent Facility,2017 1st Ave,San Diego,92101,37,San Diego,Not Applicable,,Open,1/10/1989 12:00:00 AM,Clinic,Community Clinic,32.72644,-117.16386,6280616.12368339,1845322.87069048
341,306374053,FRESENIUS MEDICAL CARE BALBOA. - LA MESA,80000356,Parent Facility,5995 Severin Dr,La Mesa,91942,37,San Diego,Not Applicable,,Open,9/25/1989 12:00:00 AM,Clinic,Chronic Dialysis Clinic,32.78742,-116.99923,6331405.91580439,1867105.86058898
342,306374075,FRESENIUS MEDICAL CARE NORTH COAST KIDNEY CENTER,80000371,Parent Facility,3300 Vista Way,Oceanside,92056,37,San Diego,Not Applicable,,Open,7/2/1990 12:00:00 AM,Clinic,Chronic Dialysis Clinic,33.18089,-117.31594,6235536.41003722,2011109.23892023
343,306374093,NEIGHBORHOOD HEALTHCARE ESCONDIDO,80000397,Parent Facility,460 N Elm St,Escondido,92025,37,San Diego,Not Applicable,,Open,12/9/1991 12:00:00 AM,Clinic,Community Clinic,33.12831,-117.07276,6309786.76645747,1991304.55805723
344,306374118,PLANNED PARENTHOOD - CHULA VISTA CENTER,90000427,Parent Facility,1295 Broadway,Chula Vista,91911,37,San Diego,Not Applicable,,Open,2/26/1993 12:00:00 AM,Clinic,Community Clinic,32.60361,-117.07863,6306472.53489697,1800413.86602047
345,306374121,FRESENIUS MEDICAL CARE MARINA BAY,80000703,Parent Facility,630 Bay Blvd,Chula Vista,91910,37,San Diego,Not Applicable,,Open,6/4/1993 12:00:00 AM,Clinic,Chronic Dialysis Clinic,32.62455,-117.0948,6301554.40989073,1808072.56362957
346,306374160,NORTH PARK FAMILY HEALTH CENTER,90000469,Parent Facility,3544 30TH ST,SAN DIEGO,92104,37,San Diego,Not Applicable,,Open,11/10/1994 12:00:00 AM,Clinic,Community Clinic,32.7429422,-117.1303957,6290958.3900723,1851238.37329514
347,306374164,NEIGHBORHOOD HEALTHCARE - LAKESIDE,80000483,Parent Facility,10039 Vine St,Lakeside,92040,37,San Diego,Not Applicable,,Open,7/28/1994 12:00:00 AM,Clinic,Community Clinic,32.86119,-116.92118,6355565.81499106,1893782.86333723
348,306374171,ENCINITAS DIALYSIS,80000502,Parent Facility,332 Santa Fe Dr,Encinitas,92024,37,San Diego,Not Applicable,,Open,3/20/1995 12:00:00 AM,Clinic,Chronic Dialysis Clinic,33.03625,-117.285,6244480.06439397,1958388.9710014
349,306374180,VISTA COMMUNITY CLINIC - PIER VIEW WAY,80000510,Parent Facility,818 PIER VIEW WAY,OCEANSIDE,92054,37,San Diego,Not Applicable,,Open,6/6/1995 12:00:00 AM,Clinic,Community Clinic,33.198492,-117.377534,6216761.14804713,2017711.65813006
350,306374200,TRUECARE,80000531,Parent Facility,2210 Mesa Dr,Oceanside,92054,37,San Diego,Not Applicable,,Open,2/2/1996 12:00:00 AM,Clinic,Community Clinic,33.20795,-117.35813,6222733.1190428,2021089.1700758
351,306374202,RAMONA PREGNANCY CARE CLINIC,80000534,Parent Facility,1530 Main St,Ramona,92065,37,San Diego,Not Applicable,,Open,2/16/1996 12:00:00 AM,Clinic,Free Clinic,33.03717,-116.87732,6369419.31221838,1957727.74660206
352,306374207,RAI - MISSION GORGE - SAN DIEGO,80000538,Parent Facility,7007 Mission Gorge Rd,San Diego,92120,37,San Diego,Not Applicable,,Open,2/22/1996 12:00:00 AM,Clinic,Chronic Dialysis Clinic,32.80034,-117.09128,6303154.26791146,1872022.37569031
353,306374208,FRESENIUS MEDICAL CARE BALBOA EAST COUNTY,80000539,Parent Facility,570 N 2nd St,El Cajon,92021,37,San Diego,Not Applicable,,Open,2/23/1996 12:00:00 AM,Clinic,Chronic Dialysis Clinic,32.801881,-116.9371095,6350532.0839168,1872235.82736315
354,306374226,ALTERNATIVES PREGNANCY CARE CLINIC,80000523,Parent Facility,257 E 2nd Ave,Escondido,92025,37,San Diego,Not Applicable,,Open,9/12/1996 12:00:00 AM,Clinic,Free Clinic,33.12181,-117.07865,6307964.81701739,1988953.87411031
355,306374242,UCSD DIALYSIS CLINIC,80000709,Parent Facility,200 W Arbor Dr,San Diego,92103,37,San Diego,Not Applicable,,Open,2/17/1998 12:00:00 AM,Clinic,Chronic Dialysis Clinic,32.75381,-117.16509,6280325.25090556,1855284.28580698
356,306374244,U S RENAL CARE OCEANSIDE DIALYSIS,80000609,Parent Facility,2227 S El Camino Real,Oceanside,92054,37,San Diego,Not Applicable,,Open,5/28/1998 12:00:00 AM,Clinic,Chronic Dialysis Clinic,33.18633,-117.32841,6231741.70929331,2013127.73357089
357,306374245,U.S. RENAL CARE CHULA VISTA BROADWAY DIALYSIS,80000708,Parent Facility,1181 Broadway,Chula Vista,91911,37,San Diego,Not Applicable,,Open,5/27/2003 12:00:00 AM,Clinic,Chronic Dialysis Clinic,32.60749,-117.08016,6306012.58240481,1801829.30183789
358,306374248,SAN DIEGO SOUTH DIALYSIS,80000705,Parent Facility,995 Gateway Center Way,San Diego,92102,37,San Diego,Not Applicable,,Open,2/14/1998 12:00:00 AM,Clinic,Chronic Dialysis Clinic,32.71409,-117.11583,6295349.90425514,1840703.45342015
359,306374260,GROSSMONT SPRING VALLEY FAMILY HEALTH CENTER,90000593,Parent Facility,8788 Jamacha Rd,Spring Valley,91977,37,San Diego,Not Applicable,,Open,9/28/1998 12:00:00 AM,Clinic,Community Clinic,32.71483,-117.00966,6328008.0443193,1840718.13613357
360,306374261,SAN YSIDRO HEALTH EUCLID,90000622,Parent Facility,286 Euclid Ave,San Diego,92114,37,San Diego,Not Applicable,,Open,9/21/1998 12:00:00 AM,Clinic,Community Clinic,32.70779,-117.08508,6304789.72231773,1838334.14385431
361,306374274,TRUECARE,80000637,Parent Facility,2210 Mesa Dr,Oceanside,92054,37,San Diego,Not Applicable,,Open,8/19/1999 12:00:00 AM,Clinic,Community Clinic,33.20795,-117.35813,6222733.1190428,2021089.1700758
362,306374279,SAN YSIDRO DIALYSIS CENTER,80000710,Parent Facility,3010 Del Sol Blvd,San Diego,92154,37,San Diego,Not Applicable,,Open,6/12/2000 12:00:00 AM,Clinic,Chronic Dialysis Clinic,32.57356,-117.06844,6309524.91757172,1789455.75506273
363,306374280,CHASE AVENUE FAMILY HEALTH CENTER,90000631,Parent Facility,1111 W Chase Ave,El Cajon,92020,37,San Diego,Not Applicable,,Open,3/28/2000 12:00:00 AM,Clinic,Community Clinic,32.78168,-116.97659,6338349.30480473,1864968.18999556
364,306374281,BORREGO MEDICAL CLINIC,80000651,Parent Facility,4343 Yaqui Pass Rd,Borrego Springs,92004,37,San Diego,Not Applicable,,Open,8/25/2000 12:00:00 AM,Clinic,Community Clinic,33.19398,-116.32905,6537487.40816814,2014214.17759223
365,306374285,SAN YSIDRO DIALYSIS,80000711,Parent Facility,1445 30th St,San Diego,92154,37,San Diego,Not Applicable,,Open,12/8/2000 12:00:00 AM,Clinic,Chronic Dialysis Clinic,32.57092,-117.06692,6309985.66435364,1788491.54997015
366,306374286,RAY M DICKINSON WELLNESS CENTER,80000657,Parent Facility,425 N Date St,Escondido,92025,37,San Diego,Not Applicable,,Open,1/29/2001 12:00:00 AM,Clinic,Community Clinic,33.12922,-117.07166,6310126.12765539,1991632.99736097
367,306374295,VISTA COMMUNITY CLINIC - HORNE STREET,80000745,Parent Facility,517 N Horne St,Oceanside,92054,37,San Diego,Not Applicable,,Open,8/16/2001 12:00:00 AM,Clinic,Community Clinic,33.20131,-117.37846,6216488.99570431,2018740.0058109
368,306374301,PLANNED PARENTHOOD - MISSION BAY CLINIC,80000752,Parent Facility,4501 Mission Bay Dr,San Diego,92109,37,San Diego,Not Applicable,,Open,5/31/2002 12:00:00 AM,Clinic,Community Clinic,32.80305,-117.2166,6264654.99484456,1873342.21524222
369,306374303,SAN DIEGO EAST DIALYSIS,80000759,Parent Facility,292 Euclid Ave,San Diego,92114,37,San Diego,Not Applicable,,Open,5/2/2002 12:00:00 AM,Clinic,Chronic Dialysis Clinic,32.70723,-117.08607,6304483.55921614,1838132.83684222
370,306374305,FMC DIALYSIS SERVICES OF PARADISE,80000758,Parent Facility,6919 Paradise Valley Rd,San Diego,92139,37,San Diego,Not Applicable,,Open,6/19/2002 12:00:00 AM,Clinic,Chronic Dialysis Clinic,32.68961,-117.0447,6317160.42887548,1831622.51948231
371,306374324,MID-CITY COMMUNITY CLINIC (PEDIATRICS),90000672,Parent Facility,4305 University Ave,San Diego,92105,37,San Diego,Not Applicable,,Open,9/25/2003 12:00:00 AM,Clinic,Community Clinic,32.74957,-117.10103,6300007.49500555,1853574.82269047
372,306374325,FMCNA DIALYSIS SERVICES OF RANCHO,80000777,Parent Facility,11031 Via Frontera,San Diego,92127,37,San Diego,Not Applicable,,Open,9/23/2003 12:00:00 AM,Clinic,Chronic Dialysis Clinic,33.01221,-117.09256,6303383.87867272,1949111.32420239
373,306374326,CARMEL MOUNTAIN DIALYSIS,80000776,Parent Facility,9850 Carmel Mountain Rd,San Diego,92129,37,San Diego,Not Applicable,,Open,9/30/2003 12:00:00 AM,Clinic,Chronic Dialysis Clinic,32.96007,-117.11514,6296304.73764731,1930197.61760731
374,306374328,COLLEGE DIALYSIS,80000775,Parent Facility,6535 UNIVERSITY AVE,SAN DIEGO,92115,37,San Diego,Not Applicable,,Open,9/23/2003 12:00:00 AM,Clinic,Chronic Dialysis Clinic,32.7546315,-117.0549019,6314204.24351488,1855303.75295964
375,306374329,VISTA COMMUNITY CLINIC,80000779,Parent Facility,4700 N River Rd,Oceanside,92057,37,San Diego,Not Applicable,,Open,10/16/2003 12:00:00 AM,Clinic,Community Clinic,33.24537,-117.31045,6237454.67916656,2034552.3065353
376,306374346,PREGNANCY CARE CENTER,90000658,Parent Facility,677 S Magnolia Ave,El Cajon,92020,37,San Diego,Not Applicable,,Open,10/29/2004 12:00:00 AM,Clinic,Free Clinic,32.78794,-116.96227,6342766.11650914,1867215.44632781
377,306374349,COLLEGE AREA PREGNANCY SERVICES,90000659,Parent Facility,6663 El Cajon Blvd,San Diego,92115,37,San Diego,Not Applicable,,Open,5/29/2005 12:00:00 AM,Clinic,Free Clinic,32.76783,-117.05529,6314122.01434864,1860106.75844547
378,306374359,TRUECARE,80000638,Parent Facility,1130 2nd St,Encinitas,92024,37,San Diego,Not Applicable,,Open,8/25/2005 12:00:00 AM,Clinic,Community Clinic,33.03757,-117.29369,6241821.78854255,1958895.77510589
379,306374378,PLANNED PARENTHOOD - CITY HEIGHTS CLINIC,550000210,Parent Facility,4305 University Ave,San Diego,92105,37,San Diego,Not Applicable,,Open,7/3/2006 12:00:00 AM,Clinic,Community Clinic,32.74957,-117.10103,6300007.49500555,1853574.82269047
380,306374379,SAN YSIDRO HEALTH MOBILE HEALTH SERVICES 1G,550000116,Parent Facility,4004 BEYER BLVD,SAN YSIDRO,92173,37,San Diego,Not Applicable,,Open,1/1/2006 12:00:00 AM,Clinic,Community Clinic,32.558498,-117.047674,6315880.46391572,1783926.03351064
381,306374380,SAN YSIDRO HEALTH MOBILE HEALTH SERVICES 1F,550000117,Parent Facility,4004 Beyer Blvd,San Ysidro,92173,37,San Diego,Not Applicable,,Open,1/1/2006 12:00:00 AM,Clinic,Community Clinic,32.55828,-117.04684,6316136.8357783,1783844.75152098
382,306374385,FRESENIUS MEDICAL CARE OF LA JOLLA,550000269,Parent Facility,4765 Carmel Mountain Rd,San Diego,92130,37,San Diego,Not Applicable,,Open,10/17/2006 12:00:00 AM,Clinic,Chronic Dialysis Clinic,32.92177,-117.21285,6266206.14397322,1916525.57933465
383,306374387,PLANNED PARENTHOOD - EL CAJON CLINIC,90000144,Parent Facility,1685 E Main St,El Cajon,92021,37,San Diego,Not Applicable,,Open,12/7/2006 12:00:00 AM,Clinic,Community Clinic,32.81145,-116.9191,6356088.39202988,1875681.41036698
384,306374393,LA MESA REHAB,80000742,Parent Facility,8380 Center Dr,La Mesa,91942,37,San Diego,Not Applicable,,Open,6/11/2007 12:00:00 AM,Clinic,Rehabilitation Clinic,32.77533,-117.01635,6326112.10847864,1862745.31681664
385,306374398,SHERMAN HEIGHTS FAMILY HEALTH CENTER,90000565,Parent Facility,2391 Island Ave,San Diego,92102,37,San Diego,Not Applicable,,Open,6/4/2007 12:00:00 AM,Clinic,Community Clinic,32.71047,-117.14259,6287107.72716998,1839455.78367139
386,306374401,"ALLIANCE HEALTH CLINIC, INC.",550000541,Parent Facility,5952 El Cajon Blvd,San Diego,92115,37,San Diego,Not Applicable,,Open,7/26/2007 12:00:00 AM,Clinic,Community Clinic,32.76026,-117.06941,6309759.93219355,1857386.34328264
387,306374405,COMMUNITY ELDERCARE OF SAN DIEGO,550000626,Parent Facility,111 ELM ST,SAN DIEGO,92101,37,San Diego,Not Applicable,,Open,12/4/2007 12:00:00 AM,Clinic,Community Clinic,32.7236951,-117.163407,6280746.68969522,1844322.96520998
388,306374409,SAN YSIDRO HEALTH CHILDREN'S DENTAL CENTER AT RADY CHILDREN'S HOSPITAL,550000692,Parent Facility,8110 Birmingham Way,San Diego,92123,37,San Diego,Not Applicable,,Open,4/8/2019 12:00:00 AM,Clinic,Community Clinic,32.7984927,-117.1521511,6284443.88964988,1871506.65001573
389,306374413,FRESENIUS MEDICAL CARE BUENA CREEK,80000623,Parent Facility,950 Hacienda Dr,Vista,92081,37,San Diego,Not Applicable,,Open,5/28/2008 12:00:00 AM,Clinic,Chronic Dialysis Clinic,33.19331,-117.26247,6251939.38772988,2015465.04385689
390,306374421,CHULA VISTA FAMILY HEALTH CENTER,550000877,Parent Facility,251 Landis Ave,Chula Vista,91910,37,San Diego,Not Applicable,,Open,2/4/2009 12:00:00 AM,Clinic,Community Clinic,32.64253,-117.08148,6305707.75000922,1814581.37443081
391,306374425,SAN MARCOS DIALYSIS CENTER,550000991,Parent Facility,2135 Montiel Rd,San Marcos,92069,37,San Diego,Not Applicable,,Open,4/22/2009 12:00:00 AM,Clinic,Chronic Dialysis Clinic,33.1322,-117.11745,6296117.24852097,1992830.78696014
392,306374426,SAMAHAN HEALTH CENTERS : 2835 HIGHLAND,550000148,Parent Facility,2835 Highland Ave,National City,91950,37,San Diego,Not Applicable,,Open,5/1/2019 12:00:00 AM,Clinic,Community Clinic,32.66009,-117.09165,6302628.66167922,1820995.44985723
393,306374430,PREGNANCY RESOURCE CENTER,80000658,Parent Facility,1830 Hacienda Dr,Vista,92081,37,San Diego,Not Applicable,,Open,11/19/2008 12:00:00 AM,Clinic,Community Clinic,33.18666,-117.28014,6246510.11906089,2013098.47739582
394,306374432,SAN YSIDRO HEALTH PARADISE HILLS,550001126,Parent Facility,2400 E 8th St,National City,91950,37,San Diego,Not Applicable,,Open,8/20/2009 12:00:00 AM,Clinic,Community Clinic,32.68279,-117.08199,6305667.64116555,1829230.65943664
